AMIE,NOMBRE,PROVINCIA,CANTON,LAT,LON,MD,M,JE
02H00015,UNIDAD EDUCATIVA ANGEL POLIBIO CHAVES,BOLIVAR,GUARANDA,-1.59701734077,-79.0011543927,23346.080000000005,12224,0.0
02H00126,EEB CARLOS  GUALBERTO GALARZA,BOLIVAR,GUARANDA,-1.59213839271,-79.0328664013,5836.520000000001,3056,5748.0
02H00131,UNIDAD EDUCATIVA DEL MILENIO INTERCULTURAL SALINAS,BOLIVAR,GUARANDA,-1.40442369857,-79.0163235546,5836.520000000001,3056,0.0
02H00185,UNIDAD EDUCATIVA FELIX GRANJA GAMAZO,BOLIVAR,GUARANDA,-1.29023555644,-78.9606467519,5836.520000000001,3056,0.0
02H00207,UNIDAD EDUCATIVA SIMON RODRIGUEZ,BOLIVAR,GUARANDA,-1.29770357749,-79.0167964428,5836.520000000001,3056,5748.0
02H00219,UNIDAD EDUCATIVA  DIEGO DE ALMAGRO,BOLIVAR,GUARANDA,-1.23302305514,-79.2406007824,11673.040000000003,6112,5748.0
02H00333,EEB DARIO C GUEVARA,BOLIVAR,CHILLANES,-1.95568758586,-79.2375512745,8754.780000000002,4584,0.0
02H00363,UNIDAD EDUCATIVA LA ASUNCION,BOLIVAR,CHIMBO,-1.66664027836,-79.0386704281,5836.520000000001,3056,0.0
02H00543,UNIDAD EDUCATIVA 8 DE  NOVIEMBRE,BOLIVAR,SAN MIGUEL,-1.76503749918,-79.1741606527,5836.520000000001,3056,0.0
05H00024,ESCUELA DE EDUCACION BASICA CLUB ROTARIO,COTOPAXI,LATACUNGA,-0.943473421139,-78.6155360921,8754.780000000002,4584,5748.0
05H00032,UNIDAD EDUCATIVA ONCE DE NOVIEMBRE,COTOPAXI,LATACUNGA,-0.938603631717,-78.6086495236,17509.560000000005,9168,5748.0
05H00039,UNIDAD EDUCATIVA RAMON PAEZ,COTOPAXI,LATACUNGA,-0.879484854128,-78.6408948513,8754.780000000002,4584,0.0
05H00047,UNIDAD EDUCATIVA DR JOSE MARIA VELASCO IBARRA,COTOPAXI,LATACUNGA,-0.94021120626,-78.6140232035,11673.040000000003,6112,0.0
05H00124,UNIDAD EDUCATIVA MANUEL GONZALO ALBAN RUMAZO,COTOPAXI,LATACUNGA,-0.864862038081,-78.5970573502,8754.780000000002,4584,0.0
05H00143,ESCUELA DE EDUCACION BASICA RIOBAMBA,COTOPAXI,LATACUNGA,-0.809190109357,-78.6447472731,5836.520000000001,3056,0.0
05H00154,UNIDAD EDUCATIVA FELIX VALENCIA,COTOPAXI,LATACUNGA,-0.817458185808,-78.5940332655,5836.520000000001,3056,0.0
05H00158,UNIDAD EDUCATIVA MULALO,COTOPAXI,LATACUNGA,-0.781302190599,-78.5802796772,8754.780000000002,4584,0.0
05H00166,UNIDAD EDUCATIVA GRAL LEONIDAS PLAZA GUTIERREZ,COTOPAXI,LATACUNGA,-0.729975046781,-78.57533351,5836.520000000001,3056,0.0
05H00174,UNIDAD EDUCATIVA POALO - GARCIA MORENO,COTOPAXI,LATACUNGA,-0.883206015978,-78.672676113,5836.520000000001,3056,0.0
05H00183,UNIDAD EDUCATIVA  CORONEL GERMÁNICO RIBADENEIRA VALENCIA,COTOPAXI,LATACUNGA,-0.710703439579,-78.6094925488,5836.520000000001,3056,0.0
05H00184,UNIDAD EDUCATIVA QUITO,COTOPAXI,LATACUNGA,-0.710225471274,-78.5943353787,5836.520000000001,3056,0.0
05H00185,UNIDAD EDUCATIVA ATANASIO VITERI KAROLYS,COTOPAXI,LATACUNGA,-0.617218479108,-78.6301632966,5836.520000000001,3056,0.0
05H00186,UNIDAD EDUCATIVA PASTOCALLE,COTOPAXI,LATACUNGA,-0.731690350597,-78.6386656176,8754.780000000002,4584,0.0
05H00191,ESCUELA DE EDUCACION BASICA RAFAEL CAJIAO ENRÍQUEZ,COTOPAXI,LATACUNGA,-0.72360826445,-78.6201356832,5836.520000000001,3056,0.0
05H00201,UNIDAD EDUCATIVA MARCO AURELIO SUBIA MARTINEZ - BATALLA DE PANUPALI,COTOPAXI,LATACUNGA,-0.779056644903,-78.6368350801,17509.560000000005,9168,0.0
05H00210,UNIDAD EDUCATIVA JUAN MANUEL LASSO,COTOPAXI,LATACUNGA,-0.756718327296,-78.6175588053,8754.780000000002,4584,5748.0
05H00221,UNIDAD EDUCATIVA TOACASO,COTOPAXI,LATACUNGA,-0.756980075373,-78.6830941289,8754.780000000002,4584,5748.0
05H00240,UNIDAD EDUCATIVA  FEDERACIÓN DEPORTIVA DE COTOPAXI,COTOPAXI,LA MANA,-0.931935169279,-79.2197077809,11673.040000000003,6112,5748.0
05H00245,UNIDAD EDUCATIVA LA MANA,COTOPAXI,LA MANA,-0.942421987098,-79.2316057797,20427.820000000003,10696,5748.0
05H00286,UNIDAD EDUCATIVA DR NESTOR MOGOLLON LOPEZ,COTOPAXI,LA MANA,-0.942315070929,-79.2705503549,5836.520000000001,3056,5748.0
05H00287,UNIDAD EDUCATIVA NARCISO CERDA MALDONADO,COTOPAXI,LA MANA,-0.939507212992,-79.2258397597,14591.300000000003,7640,0.0
05H00318,UNIDAD EDUCATIVA  GUASAGANDA,COTOPAXI,LA MANA,-0.802991491573,-79.1566976965,5836.520000000001,3056,0.0
05H00399,UNIDAD  EDUCATIVA  GUAPARA,COTOPAXI,PANGUA,-1.10874246317,-79.266265338,8754.780000000002,4584,5748.0
05H00472,UNIDAD EDUCATIVA PUJILI,COTOPAXI,PUJILI,-0.958159280394,-78.6937969236,5836.520000000001,3056,0.0
05H00550,UNIDAD EDUCATIVA 14 DE OCTUBRE - VICENTE ROCAFUERTE,COTOPAXI,PUJILI,-0.916905665106,-78.6924676852,8754.780000000002,4584,5748.0
05H00568,UNIDAD EDUCATIVA DIGNA MARIA BEATRIZ CERDA NETO,COTOPAXI,PUJILI,-0.880416835674,-79.1609541023,5836.520000000001,3056,5748.0
05H00621,UNIDAD EDUCATIVA FEDERICO GONZALEZ SUAREZ,COTOPAXI,SALCEDO,-1.04487856359,-78.5884869918,14591.300000000003,7640,0.0
05H00632,UNIDAD EDUCATIVA IGNACIO FLORES,COTOPAXI,SALCEDO,-1.09894903211,-78.6041463205,5836.520000000001,3056,5748.0
05H00640,UNIDAD EDUCATIVA CUSUBAMBA,COTOPAXI,SALCEDO,-1.06997044575,-78.6999124843,5836.520000000001,3056,5748.0
05H00648,UNIDAD EDUCATIVA LUIS A MARTINEZ,COTOPAXI,SALCEDO,-1.09286104144,-78.6210794465,8754.780000000002,4584,0.0
05H00658,UNIDAD EDUCATIVA EMILIO TERAN,COTOPAXI,SALCEDO,-1.03305825821,-78.5646396572,5836.520000000001,3056,0.0
05H00665,UNIDAD EDUCATIVA NÉSTOR MOGOLLÓN,COTOPAXI,SALCEDO,-1.09205944353,-78.5797251512,5836.520000000001,3056,0.0
05H00667,UNIDAD EDUCATIVA JOSE MEJÍA LEQUERICA,COTOPAXI,SALCEDO,-1.06658456179,-78.5994480655,5836.520000000001,3056,0.0
05H00674,ESCUELA DE EDUCACION BASICA REPUBLICA DE COLOMBIA,COTOPAXI,SAQUISILI,-0.839350937352,-78.6699372646,11673.040000000003,6112,5748.0
05H00716,UNIDAD EDUCATIVA DEL MILENIO SIGCHOS,COTOPAXI,SIGCHOS,-0.698724016992,-78.8856733308,8754.780000000002,4584,0.0
05H00772,UNIDAD EDUCATIVA JUAN JOSÉ FLORES,COTOPAXI,SIGCHOS,-0.800627270435,-78.9227901632,5836.520000000001,3056,5748.0
05H00803,UNIDAD EDUCATIVA JUAN SALINAS,COTOPAXI,SIGCHOS,-0.374672742112,-78.9233517046,5836.520000000001,3056,0.0
05H00838,UNIDAD EDUCATIVA JORGE WASHINGTON,COTOPAXI,SIGCHOS,-0.546616577018,-79.1294877169,5836.520000000001,3056,0.0
05H00855,UNIDAD EDUCATIVA LUIS FERNANDO RUIZ,COTOPAXI,LATACUNGA,-0.933356412203,-78.6048029578,11673.040000000003,6112,0.0
05H00857,UNIDAD EDUCATIVA CORONEL HECTOR ESPINOSA,COTOPAXI,LATACUNGA,-0.748377037563,-78.7228811393,5836.520000000001,3056,0.0
05H00900,UNIDAD EDUCATIVA BELISARIO QUEVEDO,COTOPAXI,PUJILI,-0.95798596071,-78.7004391591,20427.820000000003,10696,5748.0
06H00013,ESCUELA DE EDUCACION BASICA GRAL JUAN LAVALLE,CHIMBORAZO,RIOBAMBA,-1.64608222103,-78.6734201047,17509.560000000005,9168,0.0
06H00021,ESCUELA DE EDUCACION BASICA SAN FELIPE NERI,CHIMBORAZO,RIOBAMBA,-1.66165999679,-78.6692409181,11673.040000000003,6112,5748.0
06H00024,UNIDAD EDUCATIVA CAMILO GALLEGOS TOLEDO,CHIMBORAZO,RIOBAMBA,-1.65658580081,-78.670313323,8754.780000000002,4584,5748.0
06H00044,UNIDAD EDUCATIVA ONCE DE NOVIEMBRE,CHIMBORAZO,RIOBAMBA,-1.67953439666,-78.6493348021,11673.040000000003,6112,5748.0
06H00110,UNIDAD EDUCATIVA  LICEO POLICIAL CHIMBORAZO,CHIMBORAZO,RIOBAMBA,-1.67929315096,-78.6394265311,5836.520000000001,3056,0.0
06H00166,UNIDAD EDUCATIVA  MIGUEL ANGEL LEON PONTON,CHIMBORAZO,RIOBAMBA,-1.66628424567,-78.6468378815,23346.080000000005,12224,0.0
06H00215,UNIDAD EDUCATIVA MILTON REYES,CHIMBORAZO,RIOBAMBA,-1.70705372516,-78.6414864467,5836.520000000001,3056,5748.0
06H00232,UNIDAD EDUCATIVA  ISABEL DE GODIN,CHIMBORAZO,RIOBAMBA,-1.67991518922,-78.6484542124,17509.560000000005,9168,0.0
06H00282,UNIDAD EDUCATIVA SIMON RODRIGUEZ,CHIMBORAZO,RIOBAMBA,-1.65341431363,-78.7075036217,11673.040000000003,6112,0.0
06H00317,UNIDAD EDUCATIVA VICTOR PROAÑO CARRION,CHIMBORAZO,RIOBAMBA,-1.64761209225,-78.7416176699,5836.520000000001,3056,0.0
06H00337,ESCUELA DE EDUCACION BASICA ANDOAS,CHIMBORAZO,RIOBAMBA,-1.64926246893,-78.60444199290001,5836.520000000001,3056,0.0
06H00363,ESCUELA DE EDUCACION  BASICA   CACIQUE PINTAG,CHIMBORAZO,RIOBAMBA,-1.76941307458,-78.6047511263,5836.520000000001,3056,0.0
06H00410,ESCUELA DE EDUCACION BASICA  AMBROSIO NORIEGA,CHIMBORAZO,RIOBAMBA,-1.81681986042,-78.5939492769,5836.520000000001,3056,0.0
06H00471,ESCUELA DE EDUCACION BASICA  BERNARDO CASTILLO,CHIMBORAZO,RIOBAMBA,-1.65755887296,-78.569430592,5836.520000000001,3056,0.0
06H00509,ESCUELA DE EDUCACION BASICA SAN LUIS REY DE FRANCIA,CHIMBORAZO,RIOBAMBA,-1.70932418256,-78.6462645722,5836.520000000001,3056,0.0
06H00512,ESCUELA DE EDUCACION BASICA NIDIA JARAMILLO,CHIMBORAZO,RIOBAMBA,-1.69670828531,-78.6440779569,5836.520000000001,3056,0.0
06H01004,UNIDAD EDUCATIVA DEL MILENIO GUARDIANA DE LA LENGUA 27 DE FEBRERO,CHIMBORAZO,GUAMOTE,-2.07930877966,-78.7341270207,5836.520000000001,3056,0.0
06H01064,UNIDAD EDUCATIVA DR MANUEL RODRIGUEZ OROZCO,CHIMBORAZO,GUANO,-1.54030779944,-78.5849782774,5836.520000000001,3056,5748.0
06H01076,UNIDAD EDUCATIVA ONCE DE NOVIEMBRE,CHIMBORAZO,GUANO,-1.56507190266,-78.7517209856,5836.520000000001,3056,0.0
06H01081,ESCUELA DE EDUCACIÓN BÁSICA REPUBLICA FEDERAL DE ALEMANIA,CHIMBORAZO,GUANO,-1.55277788945,-78.7439636988,5836.520000000001,3056,0.0
06H01082,UNIDAD EDUCATIVA SAN PABLO,CHIMBORAZO,GUANO,-1.5600328664,-78.7233220607,5836.520000000001,3056,0.0
06H01085,ESCUELA DE EDUCACIÓN BÁSICA BOLIVAR CHIRIBOGA BAQUERO,CHIMBORAZO,GUANO,-1.55667324508,-78.7346890957,5836.520000000001,3056,5748.0
06H01090,UNIDAD EDUCATIVA TUNTATACTO,CHIMBORAZO,GUANO,-1.53039939248,-78.7232009212,5836.520000000001,3056,0.0
06H01095,ESCUELA DE EDUCACIÓN BÁSICA NUEVE DE OCTUBRE,CHIMBORAZO,GUANO,-1.55203584331,-78.7601609589,5836.520000000001,3056,5748.0
06H01172,UNIDAD EDUCATIVA SAN ISIDRO,CHIMBORAZO,GUANO,-1.58588106402,-78.6932550785,5836.520000000001,3056,0.0
06H01196,UNIDAD EDUCATIVA JOSÉ ENRIQUE RODÓ,CHIMBORAZO,GUANO,-1.5281997372,-78.5492264267,5836.520000000001,3056,0.0
06H01197,ESCUELA DE EDUCACIÓN BÁSICA JOSÉ ANTONIO LIZARZABURU,CHIMBORAZO,GUANO,-1.49133609573,-78.5628208941,5836.520000000001,3056,5748.0
06H01290,UNIDAD EDUCATIVA MANUEL ALVAREZ MENDEZ,CHIMBORAZO,PENIPE,-1.55055445384,-78.5196243099,5836.520000000001,3056,5748.0
07H00516,UNIDAD EDUCATIVA BELLAMARIA,EL ORO,BALSAS,-3.76041670567,-79.8478055404,5836.520000000001,3056,0.0
07H00574,UNIDAD EDUCATIVA  DR JOSE MARIA VELASCO IBARRA,EL ORO,EL GUABO,-3.24286149784,-79.8258056057,8754.780000000002,4584,0.0
07H00586,ESCUELA DE EDUCACIÓN BÁSICA GENERAL MANUEL SERRANO RENDA,EL ORO,EL GUABO,-3.24491707671,-79.8306111462,20427.820000000003,10696,0.0
07H00596,ESCUELA DE EDUCACIÓN BÁSICA OSCAR EFREN REYES,EL ORO,EL GUABO,-3.24280594995,-79.8295278204,11673.040000000003,6112,5748.0
07H00605,ESCUELA DE EDUCACION BASICA ZOILA UGARTE DE LANDIVAR,EL ORO,EL GUABO,-3.24505599432,-79.8336389518,14591.300000000003,7640,5748.0
07H00621,ESCUELA DE EDUCACION BASICA LUIS AGUILAR MARIN,EL ORO,EL GUABO,-3.25794481871,-79.8423333511,5836.520000000001,3056,0.0
07H00630,ESCUELA DE EDUCACION BASICA DR  LUIS FELIPE BORJA,EL ORO,EL GUABO,-3.16925036082,-79.8285278323,5836.520000000001,3056,0.0
07H00635,UNIDAD EDUCATIVA PROVINCIA DE LOS RIOS,EL ORO,EL GUABO,-3.19047256696,-79.8526112045,14591.300000000003,7640,0.0
07H00639,ESCUELA DE EDUCACIÓN BÁSICA GUADALUPE FERNANDEZ DE CASTRO,EL ORO,EL GUABO,-3.2565837159,-79.86883343,8754.780000000002,4584,0.0
07H00657,UNIDAD EDUCATIVA DR CARLOS CORNEJO ORBE,EL ORO,EL GUABO,-3.10523247831,-79.7652332801,5836.520000000001,3056,5748.0
07H00672,ESCUELA DE EDUCACIÓN BÁSICA PROF TULA PEREZ DE VALENCIA,EL ORO,EL GUABO,-3.1127771912,-79.7713675227,5836.520000000001,3056,5748.0
07H00673,UNIDAD EDUCATIVA JAMBELI,EL ORO,EL GUABO,-3.1124992366,-79.8888719289,8754.780000000002,4584,0.0
07H00733,ESCUELA DE EDUCACIÓN BÁSICA PRESIDENTE JAIME ROLDOS AGUILERA,EL ORO,HUAQUILLAS,-3.48109274058,-80.215776602,5836.520000000001,3056,5748.0
07H00774,ESCUELA DE EDUCACION BASICA AMELIA TOBAR SUBIAGA,EL ORO,PASAJE,-3.32433336791,-79.8024722423,5836.520000000001,3056,5748.0
07H00776,UNIDAD EDUCATIVA JOHN  F KENNEDY,EL ORO,PASAJE,-3.32675046241,-79.8008334238,8754.780000000002,4584,0.0
07H00787,UNIDAD EDUCATIVA PRIMERO DE NOVIEMBRE,EL ORO,PASAJE,-3.33300045746,-79.808750017,5836.520000000001,3056,0.0
07H00815,UNIDAD EDUCATIVA ROGERIO ZAMORA PALACIOS,EL ORO,PASAJE,-3.33744485657,-79.8136111339,5836.520000000001,3056,5748.0
07H00817,UNIDAD EDUCATIVA CIUDAD DE PASAJE,EL ORO,PASAJE,-3.33188930313,-79.8041667095,8754.780000000002,4584,5748.0
07H00824,UNIDAD EDUCATIVA ABDON CALDERON GARAICOA,EL ORO,PASAJE,-3.32792275621,-79.8141385045,8754.780000000002,4584,0.0
07H00846,UNIDAD EDUCATIVA EVA ESPERANZA BATALLAS DE FALQUEZ,EL ORO,PASAJE,-3.32822263157,-79.7855277889,8754.780000000002,4584,5748.0
07H00853,UNIDAD EDUCATIVA  JUAN MONTALVO,EL ORO,PASAJE,-3.3311114804,-79.806138896,5836.520000000001,3056,5748.0
07H00866,ESCUELA DE EDUCACIÓN BÁSICA MANUEL ISAAC ENCALADA ZUÑIGA,EL ORO,PASAJE,-3.36172220303,-79.84450003,8754.780000000002,4584,0.0
07H00870,ESCUELA DE EDUCACIÓN BÁSICA AURELIO PRIETO MUELAS,EL ORO,PASAJE,-3.36033375187,-79.8463889355,8754.780000000002,4584,5748.0
07H00880,UNIDAD EDUCATIVA OLIVA CARDENAS DE SANCHEZ,EL ORO,PASAJE,-3.31288928415,-79.851111147,8754.780000000002,4584,5748.0
07H00886,UNIDAD EDUCATIVA  DR LUIS POVEDA ORELLANA,EL ORO,PASAJE,-3.29147269423,-79.7589722965,5836.520000000001,3056,5748.0
07H00918,ESCUELA DE EDUCACIÓN BÁSICA TEMISTOCLES ROMERO LUCIN,EL ORO,PASAJE,-3.29486148534,-79.818388933,5836.520000000001,3056,0.0
07H00925,ESCUELA DE EDUCACIÓN BÁSICA TERESA MOLINA DE MUÑOZ,EL ORO,PIÑAS,-3.68111321669,-79.6779462629,8754.780000000002,4584,0.0
07H00943,ESCUELA DE EDUCACIÓN BÁSICA DR GONZALO ABAD GRIJALVA,EL ORO,PIÑAS,-3.68191481458,-79.6800003345,8754.780000000002,4584,5748.0
07H00950,ESCUELA DE EDUCACIÓN BÁSICA DR FEDERICO GONZALEZ SUÁREZ,EL ORO,PIÑAS,-3.68066969482,-79.6838077498,5836.520000000001,3056,5748.0
07H00971,ESCUELA DE EDUCACION BASICA DR. MIGUEL MORENO ORDOÑEZ,EL ORO,PIÑAS,-3.68855305218,-79.9015027611,5836.520000000001,3056,0.0
07H00991,UNIDAD EDUCATIVA JUAN JOSÉ LOAYZA,EL ORO,PIÑAS,-3.64664972716,-79.859582893,5836.520000000001,3056,0.0
07H01035,ESCUELA DE EDUCACIÓN BÁSICA SIMÓN BOLÍVAR,EL ORO,SANTA ROSA,-3.4551832168,-80.0054133093,5836.520000000001,3056,5748.0
07H01036,UNIDAD EDUCATIVA DR ALFREDO PÉREZ GUERRERO,EL ORO,SANTA ROSA,-3.45586439724,-79.9664786071,8754.780000000002,4584,0.0
07H01062,UNIDAD EDUCATIVA EUGENIO ESPEJO,EL ORO,SANTA ROSA,-3.44343105361,-79.9614110952,5836.520000000001,3056,0.0
07H01105,ESCUELA DE EDUCACIÓN BÁSICA GUILLERMINA UNDA DE GARCÍA,EL ORO,SANTA ROSA,-3.44781110791,-79.9709885904,5836.520000000001,3056,0.0
07H01125,UNIDAD EDUCATIVA ORIENTE ECUATORIANO,EL ORO,SANTA ROSA,-3.50148630598,-79.9673620534,5836.520000000001,3056,0.0
07H01141,UNIDAD EDUCATIVA 13 DE ABRIL,EL ORO,SANTA ROSA,-3.53459513442,-79.9614866318,5836.520000000001,3056,5748.0
07H01166,UNIDAD EDUCATIVA JUAN MONTALVO,EL ORO,SANTA ROSA,-3.39576955924,-79.8388063829,5836.520000000001,3056,0.0
07H01169,UNIDAD EDUCATIVA ROSA DE LUXEMBURGO,EL ORO,SANTA ROSA,-3.37022984915,-79.8577400386,5836.520000000001,3056,0.0
07H01493,UNIDAD EDUCATIVA GENERAL ELOY ALFARO DELGADO,EL ORO,EL GUABO,-3.12625343849,-79.8526601056,8754.780000000002,4584,0.0
08H00164,ESCUELA  DE EDUCACION BASICA JUAN MONTALVO,ESMERALDAS,ESMERALDAS,0.975509832293,-79.6566040902,17509.560000000005,9168,5748.0
08H00210,UNIDAD EDUCATIVA FRANKLIN TELLO MERCADO,ESMERALDAS,ESMERALDAS,0.991329704409,-79.5651546203,11673.040000000003,6112,5748.0
08H00221,UNIDAD EDUCATIVA 10 DE SEPTIEMBRE,ESMERALDAS,ESMERALDAS,0.710885876894,-79.6889742597,5836.520000000001,3056,5748.0
08H00241,UNIDAD EDUCATIVA  DEL MILENIO CHINCA,ESMERALDAS,ESMERALDAS,0.738837824073,-79.5821714153,8754.780000000002,4584,5748.0
08H00276,UNIDAD EDUCATIVA  JUAN MONTALVO,ESMERALDAS,RIOVERDE,1.04749197222,-79.3141250275,11673.040000000003,6112,5748.0
08H00309,ESCUELA DE EDUCACION BASICA DELFINA JIJON DE CONCHA,ESMERALDAS,ESMERALDAS,0.867647581891,-79.6308226416,5836.520000000001,3056,0.0
08H00364,UNIDAD EDUCATIVA CARLOS CONCHA TORRES,ESMERALDAS,ESMERALDAS,0.900699455775,-79.7059141613,14591.300000000003,7640,5748.0
08H00369,UNIDAD EDUCATIVA ALFONSO QUIÑONEZ GEORGE,ESMERALDAS,ESMERALDAS,0.92059058024,-79.6847191275,17509.560000000005,9168,5748.0
08H00372,UNIDAD EDUCATIVA LEON DE FEBRES CORDERO,ESMERALDAS,ESMERALDAS,0.896862283215,-79.7000120228,8754.780000000002,4584,5748.0
08H00391,UNIDAD EDUCATIVA  15 DE MARZO,ESMERALDAS,ESMERALDAS,0.9341097391,-79.6752336796,14591.300000000003,7640,5748.0
08H00395,UNIDAD EDUCATIVA  RAUL DELGADO GARAY,ESMERALDAS,ESMERALDAS,0.91070677495,-79.6817686615,11673.040000000003,6112,5748.0
08H00412,UNIDAD EDUCATIVA   WALTER QUIÑONEZ SEVILLA,ESMERALDAS,ESMERALDAS,0.926523871345,-79.6603213475,8754.780000000002,4584,0.0
08H00449,UNIDAD EDUCATIVA 17 DE DICIEMBRE,ESMERALDAS,ELOY ALFARO,1.04982331067,-79.0764385281,5836.520000000001,3056,5748.0
08H00496,UNIDAD EDUCATIVA MALDONADO,ESMERALDAS,ELOY ALFARO,1.04293382613,-78.9220389062,5836.520000000001,3056,5748.0
08H00562,UNIDAD EDUCATIVA RAFAEL ASTUDILLO,ESMERALDAS,ELOY ALFARO,1.01979758979,-78.908859099,5836.520000000001,3056,5748.0
08H00620,UNIDAD EDUCATIVA  SAN FRANCISCO DEL CABO,ESMERALDAS,MUISNE,0.664272114117,-80.0603972338,5836.520000000001,3056,5748.0
08H00663,UNIDAD EDUCATIVA GABRIEL IRIARTE RIOS,ESMERALDAS,MUISNE,0.500895681602,-79.9725166558,5836.520000000001,3056,5748.0
08H00695,UNIDAD EDUCATIVA 12 DE ENERO,ESMERALDAS,QUININDE,0.29682239966,-79.575989754,2918.2600000000007,1528,5748.0
08H00737,UNIDAD EDUCATIVA TARQUI ,ESMERALDAS,QUININDE,0.659205017649,-79.5419190026,5836.520000000001,3056,0.0
08H00750,ESCUELA DE EDUCACIÓN BÁSICA ERNESTO VELASQUEZ KUFFO,ESMERALDAS,QUININDE,0.373161603563,-79.4899572134,5836.520000000001,3056,5748.0
08H00760,UNIDAD EDUCATIVA ALEJANDRO OTOYA BRIONES,ESMERALDAS,QUININDE,0.32581085751,-79.4595549978,11673.040000000003,6112,5748.0
08H00812,UNIDAD EDUCATIVA  QUININDE,ESMERALDAS,QUININDE,0.315177086454,-79.4730140817,14591.300000000003,7640,5748.0
08H00917,ESCUELA EB  EDEN DEL SADE,ESMERALDAS,QUININDE,0.520754013797,-79.3365510054,5836.520000000001,3056,5748.0
08H00976,UNIDAD EDUCATIVA DEL MILENIO MALIMPIA,ESMERALDAS,QUININDE,0.395170296096,-79.4163322354,5836.520000000001,3056,5748.0
08H01016,UNIDAD EDUCATIVA JUAN CARLOS MATHEUS POZO,ESMERALDAS,QUININDE,0.652631989462,-79.5417670024,5836.520000000001,3056,0.0
08H01038,ESCUELA EGB FISCAL ANA REYNA  MUÑOZ,ESMERALDAS,QUININDE,0.144935374477,-79.4005540422,8754.780000000002,4584,0.0
08H01050,UNIDAD EDUCATIVA CIUDAD DE AMBATO,ESMERALDAS,QUININDE,0.131882674885,-79.3616578347,5836.520000000001,3056,0.0
08H01059,UNIDAD EDUCATIVA QUITO,ESMERALDAS,QUININDE,0.136126828297,-79.401758397,8754.780000000002,4584,0.0
08H01106,UNIDAD EDUCATIVA ANTONIO  ALOMIA LLORY,SANTO DOMINGO DE LOS TSACHILAS,LA CONCORDIA,-0.0601874303159,-79.4439862352,5836.520000000001,3056,0.0
08H01131,UNIDAD EDUCATIVA PROVINCIA DE ESMERALDAS,SANTO DOMINGO DE LOS TSACHILAS,LA CONCORDIA,0.00254870878959,-79.3965182958,11673.040000000003,6112,5748.0
08H01136,UNIDAD EDUCATIVA AGUSTIN  OCAMPO SANTANDER,SANTO DOMINGO DE LOS TSACHILAS,LA CONCORDIA,0.01692387793,-79.4016674076,5836.520000000001,3056,5748.0
08H01144,UNIDAD EDUCATIVA DR  ANDRES F CORDOVA,SANTO DOMINGO DE LOS TSACHILAS,LA CONCORDIA,0.0183586898321,-79.3836526896,14591.300000000003,7640,5748.0
08H01169,ROSA ZARATE,SANTO DOMINGO DE LOS TSACHILAS,LA CONCORDIA,0.000189918893893,-79.39872655,5836.520000000001,3056,5748.0
08H01189,UNIDAD EDUCATIVA JOSE OTILIO RAMIREZ REINA,ESMERALDAS,SAN LORENZO,1.2866700161,-78.8216699788,11673.040000000003,6112,5748.0
08H01195,UNIDAD EDUCATIVA 26 DE AGOSTO,ESMERALDAS,SAN LORENZO,1.28784498544,-78.836477734,11673.040000000003,6112,0.0
08H01211,UNIDAD EDUCATIVA ANCON DE SARDINAS,ESMERALDAS,SAN LORENZO,1.43886946421,-78.8632744793,5836.520000000001,3056,0.0
08H01244,ESCUELA EGB GENERAL JULIO ANDRADE,ESMERALDAS,SAN LORENZO,1.09853113929,-78.7279212173,5836.520000000001,3056,5748.0
08H01246,UNIDAD EDUCATIVA JOSE GABRIEL BATALLAS,ESMERALDAS,SAN LORENZO,1.09160995577,-78.7036099958,5836.520000000001,3056,5748.0
08H01249,ESCUELA EGB  PEDRO MONCAYO,ESMERALDAS,SAN LORENZO,1.25761608886,-78.8845149103,5836.520000000001,3056,0.0
08H01276,UNIDAD EDUCATIVA  LCDA AGUEDA GONZALEZ QUIÑONEZ,ESMERALDAS,ATACAMES,0.868654363854,-79.8485554666,20427.820000000003,10696,5748.0
08H01318,ESCUELA DE EDUCACION BASICA VICTORIA VASQUEZ,ESMERALDAS,ATACAMES,0.875880766644,-79.8167880656,5836.520000000001,3056,5748.0
08H01327,UNIDAD EDUCATIVA  ANTONIO ANTE,ESMERALDAS,ATACAMES,0.868509888542,-79.7639990427,2918.2600000000007,1528,5748.0
08H01332,UNIDAD EDUCATIVA  CORONEL HELEODORO SAENZ RIVADENEIRA,ESMERALDAS,ATACAMES,0.883814916582,-79.8210898063,5836.520000000001,3056,0.0
08H01341,ESCUELA DE EDUCACION BASICA  ZOILA UGARTE DE LANDIVAR,ESMERALDAS,ATACAMES,0.885114478557,-79.8118429222,5836.520000000001,3056,5748.0
08H01380,ESCUELA DE EDUCACIÓN GENERAL BÁSICA RICARDO PLAZA BASTIDAS,ESMERALDAS,RIOVERDE,0.769000024099,-79.3938089591,5836.520000000001,3056,5748.0
08H01384,UNIDAD EDUCATIVA  ARMENGOL LARA VALENCIA,ESMERALDAS,RIOVERDE,0.833805688632,-79.4184490942,5836.520000000001,3056,0.0
08H01401,UNIDAD EDUCATIVA DONATO YANNUZZELLY ORTIZ,ESMERALDAS,RIOVERDE,1.07290640325,-79.2536182117,5836.520000000001,3056,0.0
08H01408,ESCUELA EGB FISCAL SEBASTIAN DE ILLESCAS,ESMERALDAS,RIOVERDE,1.05766663293,-79.2093888884,5836.520000000001,3056,0.0
08H01428,UNIDAD EDUCATIVA RAMON ESTUPIÑAN ,ESMERALDAS,RIOVERDE,1.06605444086,-79.3732669935,11673.040000000003,6112,0.0
08H02247,UNIDAD EDUCATIVA CARLOS ANDRADE MARÍN,ESMERALDAS,QUININDE,0.0399463949831,-79.4049066258,5836.520000000001,3056,5748.0
08H02258,UNIDAD EDUCATIVA DEL MILENIO SIMON PLATA TORRES,ESMERALDAS,ESMERALDAS,0.897924666766,-79.7128609055,8754.780000000002,4584,5748.0
09H00001,ESCUELA DE EDUCACION BASICA FISCAL CARLOS ALBERTO FLORES,GUAYAS,GUAYAQUIL,-2.20777098333,-79.8930779186,5836.520000000001,3056,5748.0
09H00016,UNIDAD EDUCATIVA FISCAL NUEVE DE OCTUBRE,GUAYAS,GUAYAQUIL,-2.20635059913,-79.8854060143,5836.520000000001,3056,0.0
09H00057,ESCUELA DE EDUCACION BASICA FISCAL GONZALO LLONA,GUAYAS,GUAYAQUIL,-2.18205022485,-79.877167379,14591.300000000003,7640,0.0
09H00093,UNIDAD EDUCATIVA  DR RAFAEL GARCIA GOYENA,GUAYAS,GUAYAQUIL,-2.20388777355,-79.9191839937,2918.2600000000007,1528,0.0
09H00112,ESCUELA DE EDUCACION BASICA COMPLETA ISABEL RAMIREZ ESTRADA,GUAYAS,GUAYAQUIL,-2.19527362539,-79.9283512191,11673.040000000003,6112,0.0
09H00148,ESCUELA DE EDUCACION BASICA ADOLFO H SIMMONDS,GUAYAS,GUAYAQUIL,-2.19839356727,-79.9220162968,5836.520000000001,3056,0.0
09H00165,ESCUELA DE EDUCACION BASICA OLGA AGUIRRE TORRES DE IZURIETA,GUAYAS,GUAYAQUIL,-2.22274051113,-79.9192744648,2918.2600000000007,1528,5748.0
09H00179,ESCUELA DE EDUCACION BASICA LUIS VARGAS TORRES,GUAYAS,GUAYAQUIL,-2.19821510844,-79.9143337261,5836.520000000001,3056,0.0
09H00180,UNIDAD EDUCATIVA FISCAL ALBERTO PERDOMO FRANCO,GUAYAS,GUAYAQUIL,-2.22795844656,-79.9400780709,20427.820000000003,10696,0.0
09H00188,UNIDAD EDUCATIVA FISCAL CORONEL LUCIANO CORAL,GUAYAS,GUAYAQUIL,-2.19866945852,-79.9204000163,11673.040000000003,6112,5748.0
09H00195,ESCUELA DE EDUCACION BASICA PERLA DEL PACIFICO,GUAYAS,GUAYAQUIL,-2.19431523316,-79.9316039384,11673.040000000003,6112,5748.0
09H00213,ESCUELA DE EDUCACION BASICA FISCAL TEODORO WOLF,GUAYAS,GUAYAQUIL,-2.19324941642,-79.9274912543,5836.520000000001,3056,0.0
09H00225,ESCUELA DE EDUCACION BASICA  OSCAR EFREN REYES,GUAYAS,GUAYAQUIL,-2.20362869778,-79.9441235242,17509.560000000005,9168,5748.0
09H00230,ESCUELA DE EDUCACION BASICA  DR ABEL ROMEO CASTILLO,GUAYAS,GUAYAQUIL,-2.20651475548,-79.9324693482,11673.040000000003,6112,5748.0
09H00231,ESCUELA DE EDUCACION  BASICA FISCAL CARMEN SUCRE,GUAYAS,GUAYAQUIL,-2.19963057538,-79.9297994716,8754.780000000002,4584,5748.0
09H00251,ESCUELA DE EDUCACION BASICA FILIBERTO LOPEZ AREVALO,GUAYAS,GUAYAQUIL,-2.19265509371,-79.9110090249,11673.040000000003,6112,0.0
09H00266,ESCUELA DE EDUCACION BASICA LEONARDO R  AULESTIA,GUAYAS,GUAYAQUIL,-2.19470266021,-79.9187191696,11673.040000000003,6112,5748.0
09H00282,UNIDAD EDUCATIVA FISCAL DR. ALFREDO BAQUERIZO MORENO,GUAYAS,GUAYAQUIL,-2.21884369304,-79.9074111487,14591.300000000003,7640,0.0
09H00286,ESCUELA DE EDUCACION BASICA DR JUAN TANCA MARENGO,GUAYAS,GUAYAQUIL,-2.20181071971,-79.9187961488,5836.520000000001,3056,5748.0
09H00295,ESCUELA DE EDUCACION BASICA ALICIA RIOFRIO QUIROZ,GUAYAS,GUAYAQUIL,-2.23046819272,-79.9376360353,2918.2600000000007,1528,5748.0
09H00306,ESCUELA DE EDUCACION BASICA JORGE VILLACRESES COLMONT,GUAYAS,GUAYAQUIL,-2.23462309551,-79.9414712847,2918.2600000000007,1528,0.0
09H00310,ESCUELA DE EDUCACION BASICA  JOSE DE LA CUADRA,GUAYAS,GUAYAQUIL,-2.21728230638,-79.9296428804,11673.040000000003,6112,5748.0
09H00315,ESCUELA DE EDUCACION BASICA REGION AMAZONICA,GUAYAS,GUAYAQUIL,-2.22590057103,-79.9330985641,2918.2600000000007,1528,5748.0
09H00316,ESCUELA DE EDUCACION BASICA COMPLETA CARLOS CALDERON CHICO,GUAYAS,GUAYAQUIL,-2.22559987114,-79.9388000234,11673.040000000003,6112,5748.0
09H00329,ESCUELA DE EDUCACION BASICA FISCAL GUIDO GARAY VARGAS MACHUCA,GUAYAS,GUAYAQUIL,-2.22481653288,-79.8888500859,11673.040000000003,6112,5748.0
09H00339,ESCUELA DE EDUCACION BASICA DIVISION DE INFANTERIA,GUAYAS,GUAYAQUIL,-2.21274449407,-79.9389072007,5836.520000000001,3056,5748.0
09H00343,UNIDAD EDUCATIVA FISCAL CDMTE RAFAEL MORAN VALVERDE,GUAYAS,GUAYAQUIL,-2.21567405521,-79.9360871534,11673.040000000003,6112,0.0
09H00357,ESCUELA DE EDUCACION  BASICA FRANCISCO DE ORELLANA,GUAYAS,GUAYAQUIL,-2.20089442254,-79.9179532051,2918.2600000000007,1528,0.0
09H00358,ESCUELA DE EDUCACION BASICA ROBERTO ILLINGWORTH ICAZA,GUAYAS,GUAYAQUIL,-2.20503851311,-79.9248462668,11673.040000000003,6112,0.0
09H00386,UNIDAD EDUCATIVA AIDA LEON DE RODRIGUEZ LARA,GUAYAS,GUAYAQUIL,-2.21869209369,-79.9189245668,5836.520000000001,3056,0.0
09H00389,ESCUELA DE EDUCACION BASICA HOMERO ESPINOZA RENDON,GUAYAS,GUAYAQUIL,-2.21645077728,-79.9169452055,5836.520000000001,3056,5748.0
09H00391,ESCUELA DE EDUCACION BASICA FRANCISCO OBANDO PACHECO,GUAYAS,GUAYAQUIL,-2.21869209369,-79.9189245668,5836.520000000001,3056,5748.0
09H00403,ESCUELA DE EDUCACION BASICA JORGE LUIS AUZ LANDAZURI,GUAYAS,GUAYAQUIL,-2.22124909739,-79.9257138135,5836.520000000001,3056,0.0
09H00420,ESCUELA DE EDUCACIÓN BÁSICA FISCAL GRAN COLOMBIA,GUAYAS,GUAYAQUIL,-2.08146138465,-79.935287849,2918.2600000000007,1528,0.0
09H00422,ESCUELA DE EDUCACION BASICA FISCAL MARIA SOLIS DE SALAZAR,GUAYAS,DURAN,-2.21529526523,-79.8104176817,5836.520000000001,3056,0.0
09H00452,ESCUELA DE EDUCACIÓN BASICA FISCAL OLGA QUIÑONEZ DE ESPINOZA,GUAYAS,GUAYAQUIL,-2.21207976243,-79.8971350312,2918.2600000000007,1528,0.0
09H00510,ESCUELA DE EDUCACION BASICA FISCAL PEDRO J MENEDEZ NAVARRO,GUAYAS,GUAYAQUIL,-2.20775435203,-79.906219051,5836.520000000001,3056,0.0
09H00547,ESCUELA DE EDUCACION BASICA FISCAL AGUSTIN VERA LOOR,GUAYAS,GUAYAQUIL,-2.20841760832,-79.920418172,11673.040000000003,6112,0.0
09H00561,ESCUELA DE EDUCACION BASICA FISCAL MATILDE MARQUEZ DE LA PLATA,GUAYAS,GUAYAQUIL,-2.22107691475,-79.914206881,11673.040000000003,6112,0.0
09H00567,ESCUELA DE EDUCACIÓN BÁSICA FISCAL JAIME ALFONSO NEBOT VELASCO,GUAYAS,GUAYAQUIL,-2.20563546228,-79.9132497058,11673.040000000003,6112,5748.0
09H00570,UNIDAD EDUCATIVA FISCAL PROF EDUARDO FLORES TORRES,GUAYAS,GUAYAQUIL,-2.21234931955,-79.9121210331,11673.040000000003,6112,5748.0
09H00592,ESCUELA DE EDUCACIÓN BÁSICA FISCAL CORONEL MANUEL SERRANO,GUAYAS,GUAYAQUIL,-2.20538347954,-79.9113162154,5836.520000000001,3056,0.0
09H00598,CENTRO DE EDUCACION INICIAL FISCAL ALEJANDRINA ANDRADE VALDEZ,GUAYAS,GUAYAQUIL,-2.20393519434,-79.909467041,23346.080000000005,12224,5748.0
09H00615,ESCUELA DE EDUCACION BASICA FISCAL ESPERANZA CAPUTI OLVERA,GUAYAS,GUAYAQUIL,-2.207152697,-79.9034818699,11673.040000000003,6112,5748.0
09H00617,ESCUELA DE EDUCACION BASICA FISCAL REPUBLICA DE BOLIVIA,GUAYAS,GUAYAQUIL,-2.20482761858,-79.909210397,2918.2600000000007,1528,0.0
09H00619,ESCUELA DE EDUCACIÓN BÁSICA FISCAL CLEMENCIA CORONEL DE PINCAY,GUAYAS,GUAYAQUIL,-2.2072445455,-79.9048737216,5836.520000000001,3056,0.0
09H00693,ESCUELA DE EDUCACION BASICA FISCAL CABO II VICENTE ROSERO,GUAYAS,GUAYAQUIL,-2.07343155246,-79.92592458,2918.2600000000007,1528,5748.0
09H00700,ESCUELA DE EDUCACION BASICA FISCAL SOCIEDAD ITALIANA GARIBALDI,GUAYAS,GUAYAQUIL,-2.14466698949,-79.9406670028,11673.040000000003,6112,0.0
09H00703,ESCUELA DE EDUCACION BASICA FISCAL NUMA POMPILIO LLONA,GUAYAS,GUAYAQUIL,-2.19918947638,-79.8962823151,5836.520000000001,3056,0.0
09H00706,UNIDAD EDUCATIVA FISCAL REPUBLICA DE FRANCIA,GUAYAS,GUAYAQUIL,-2.19822674424,-79.9001557271,8754.780000000002,4584,5748.0
09H00752,ESCUELA DE EDUCACION BASICA FISCAL RODRIGO CHAVEZ GONZALEZ,GUAYAS,GUAYAQUIL,-2.14866294595,-79.9251557772,5836.520000000001,3056,0.0
09H00776,ESCUELA DE EDUCACION BASICA FISCAL ANGEL AUTILIO DEL CIOPPO BECERRA,GUAYAS,GUAYAQUIL,-2.12676596636,-79.9261169859,2918.2600000000007,1528,0.0
09H00846,ESCUELA DE EDUCACION BASICA FISCAL PACIFICA VALLE PIZA,GUAYAS,GUAYAQUIL,-2.09289539816,-79.9675437073,11673.040000000003,6112,0.0
09H00871,ESCUELA DE EDUCACION BASICA FISCAL SIMON BOLIVAR,GUAYAS,GUAYAQUIL,-2.13492723338,-79.9125139948,17509.560000000005,9168,0.0
09H00872,ESCUELA DE EDUCACION BASICA FISCAL DANIEL PLAZA IGLESIA,GUAYAS,GUAYAQUIL,-2.00197096926,-79.970276998,2918.2600000000007,1528,5748.0
09H00904,ESCUELA DE EDUCACION BASICA FISCAL MATILDE HIDALGO DE PROCEL,GUAYAS,GUAYAQUIL,-2.05386977899,-79.9591767919,5836.520000000001,3056,0.0
09H00914,UNIDAD EDUCATIVA FISCAL  AGUSTIN CASTRO ESPINOZA,GUAYAS,GUAYAQUIL,-2.11139048088,-79.9659639137,11673.040000000003,6112,0.0
09H00928,UNIDAD EDUCATIVA FISCAL EDUARDO KINGMAN RIOFRIO,GUAYAS,GUAYAQUIL,-2.07343178291,-79.9290503059,2918.2600000000007,1528,5748.0
09H00929,ESCUELA DE EDUCACION BASICA FISCAL CACIQUE TOMALA,GUAYAS,GUAYAQUIL,-2.10632851163,-79.9300107536,5836.520000000001,3056,5748.0
09H00947,ESCUELA DE EDUCACION BASICA FISCAL  ROMMEL MOSQUERA JURADO,GUAYAS,GUAYAQUIL,-2.12722673619,-79.9546491277,11673.040000000003,6112,5748.0
09H00958,ESCUELA DE EDUCACION BASICA FISCAL JORGE ENRIQUE ADOUM,GUAYAS,GUAYAQUIL,-2.1294569993,-79.9219499828,11673.040000000003,6112,0.0
09H00971,ESCUELA DE EDUCACION BASICA FISCAL  REMIGIO ROMERO Y CORDERO,GUAYAS,GUAYAQUIL,-2.10000113602,-79.9628724897,11673.040000000003,6112,0.0
09H00984,ESCUELA DE EDUCACION FISCAL LUIS ALBERTO CHIRIBOGA ,GUAYAS,GUAYAQUIL,-2.10178638251,-79.9245582745,11673.040000000003,6112,0.0
09H00991,ESCUELA DE EDUCACION BASICA FISCAL BLANCA GARCIA PLAZA DE ARIAS,GUAYAS,GUAYAQUIL,-2.12201073415,-79.9626746562,8754.780000000002,4584,0.0
09H01008,UNIDAD EDUCATIVA FISCAL SARAH FLOR JIMENEZ,GUAYAS,GUAYAQUIL,-2.07872584769,-79.9122572645,11673.040000000003,6112,5748.0
09H01013,ESCUELLA DE EDUCACION BASICA FISCAL AMARILIS FUENTES ALCIVAR,GUAYAS,GUAYAQUIL,-2.12466398147,-79.9242210046,2918.2600000000007,1528,5748.0
09H01032,ESCUELA DE EDUCACION BASICA FISCAL HUMBERTO GARCIA ORTIZ,GUAYAS,GUAYAQUIL,-2.11779899586,-79.9239370382,5836.520000000001,3056,0.0
09H01038,ESCUELA DE EDUCACIÓN BÁSICA FISCAL LEOPOLDO IZQUIETA PEREZ,GUAYAS,GUAYAQUIL,-2.10038921018,-79.9214404688,11673.040000000003,6112,5748.0
09H01056,ESCUELA DE EDUCACION BASICA FISCAL LUIS FELIX LOPEZ,GUAYAS,GUAYAQUIL,-2.10024424362,-79.9682460558,17509.560000000005,9168,5748.0
09H01088,ESCUELA DE EDUCACION BASICA FISCAL CARLOMAGNO ANDRADE PAREDES,GUAYAS,GUAYAQUIL,-2.11564597838,-79.9176210115,11673.040000000003,6112,0.0
09H01106,ESCUELA DE EDUCACION BASICA FISCAL ENRIQUE VALLEJO VIVANCO,GUAYAS,GUAYAQUIL,-2.15180082904,-79.92192556,5836.520000000001,3056,0.0
09H01114,ESCUELA DE EDUCACION BASICA FISCAL RAFAELA VALLEJO BARAHONA,GUAYAS,GUAYAQUIL,-2.11917297378,-79.9129229797,5836.520000000001,3056,5748.0
09H01129,ESCUELA DE EDUCACION BASICA FISCAL LUIS BONILLA CASTILLO,GUAYAS,GUAYAQUIL,-2.18714200975,-79.9274839986,5836.520000000001,3056,5748.0
09H01130,UNIDAD EDUCATIVA FISCAL FICOA DE MONTALVO,GUAYAS,GUAYAQUIL,-2.12466398147,-79.9242210046,2918.2600000000007,1528,5748.0
09H01182,UNIDAD EDUCATIVA  FISCAL VIOLETA LUNA CARRERA,GUAYAS,GUAYAQUIL,-2.08792937367,-79.9934525373,8754.780000000002,4584,5748.0
09H01192,CENTRO DE EDUCACIÓN INICIAL FISCAL LCDA  LUPE ARROBA DE GOVEA,GUAYAS,GUAYAQUIL,-2.12437193484,-79.8840742619,20427.820000000003,10696,0.0
09H01206,ESCUELA DE EDUCACION BASICA FISCAL RITA LECUMBERRI,GUAYAS,GUAYAQUIL,-2.12720041385,-79.915682729,2918.2600000000007,1528,5748.0
09H01214,ESCUELA DE EDUCACION BASICA FISCAL DR TEODORO ALVARADO OLEA,GUAYAS,GUAYAQUIL,-2.16005637474,-79.935332396,5836.520000000001,3056,0.0
09H01229,ESCUELA DE EDUCACIÒN BASICA FISCAL FRANCISCO GARCIA AVILES,GUAYAS,GUAYAQUIL,-2.12629493449,-79.9529144161,11673.040000000003,6112,0.0
09H01262,ESCUELA DE EDUCACION BASICA FISCAL CORALIA AGUIRRE DE VILLACRES,GUAYAS,GUAYAQUIL,-2.15101042681,-79.9362794603,11673.040000000003,6112,0.0
09H01264,ESCUELA DE EDUCACION BASICA FISCAL DR ALFREDO PAREJA DIEZCANSECO,GUAYAS,GUAYAQUIL,-2.14556702317,-79.9239049861,17509.560000000005,9168,0.0
09H01265,ESCUELA DE EDUCACION BASICA FISCAL DR MANUEL IGNACIO GOMEZ LINCE,GUAYAS,GUAYAQUIL,-2.14926878743,-79.9308762546,2918.2600000000007,1528,0.0
09H01272,ESCUELA DE EDUCACION BASICA FISCAL VICENTE RAMON ROCA,GUAYAS,GUAYAQUIL,-2.14622298122,-79.9387959765,11673.040000000003,6112,5748.0
09H01275,ESCUELA DE EDUCACION BASICA FISCAL ROSA ELENA VICUÑA MUÑOZ,GUAYAS,GUAYAQUIL,-2.14426505294,-79.9298790754,5836.520000000001,3056,0.0
09H01283,CENTRO DE EDUCACION INICIAL  FISCAL LUIS ALFREDO MARTINEZ,GUAYAS,GUAYAQUIL,-2.11505028376,-80.0082661334,14591.300000000003,7640,5748.0
09H01294,ESCUELA DE EDUCACION BASICA FISCAL DIEGO DE NOBOA Y ARTETA,GUAYAS,GUAYAQUIL,-2.14583301837,-79.9293660133,5836.520000000001,3056,0.0
09H01324,ESCUELA DE EDUCACION BASICA FISCAL JOSE MIGUEL GARCIA MORENO,GUAYAS,GUAYAQUIL,-2.12275541693,-79.8918236583,2918.2600000000007,1528,0.0
09H01334,ESCUELA DE EDUCACION BASICA FISCAL JOSE MENDOZA CUCALON,GUAYAS,GUAYAQUIL,-2.14413178859,-79.9299755561,2918.2600000000007,1528,0.0
09H01344,ESCUELA DE EDUCACIÓN BÁSICA FISCAL DON RUPERTO ARTETA MONTES,GUAYAS,GUAYAQUIL,-2.12917599461,-79.9030129064,5836.520000000001,3056,0.0
09H01353,ESCUELA DE EDUCACION BASICA FISCAL ANGEL FELICISIMO ROJAS,GUAYAS,GUAYAQUIL,-2.15725001947,-79.9393919546,11673.040000000003,6112,0.0
09H01384,UNIDAD EDUCATIVA FISCAL PROF WASHINGTON YANEZ ALOMOTO,GUAYAS,GUAYAQUIL,-2.13668002785,-79.9375010359,2918.2600000000007,1528,0.0
09H01392,ESCUELA DE EDUCACION BASICA FISCAL LEYLA MORAN DE LADD,GUAYAS,GUAYAQUIL,-2.13556691589,-79.9440880079,5836.520000000001,3056,0.0
09H01423,ESCUELA DE EDUCACION BASICA FISCAL REMIGIO CRESPO TORAL,GUAYAS,GUAYAQUIL,-2.11485030647,-79.9696481752,11673.040000000003,6112,0.0
09H01465,ESCUELA DE  EDUCACION BASICA FISCAL HEROES DE TARQUI,GUAYAS,GUAYAQUIL,-2.12434603889,-79.9393250196,2918.2600000000007,1528,0.0
09H01479,ESCUELA DE EDUCACION  BASICA FISCAL NÉSTOR CAMPUZANO MENDOZA,GUAYAS,GUAYAQUIL,-2.09950397543,-79.9546224438,20427.820000000003,10696,5748.0
09H01487,ESCUELA DE EDUCACION BASICA FISCAL REPUBLICA DE EL SALVADOR,GUAYAS,GUAYAQUIL,-2.13072336962,-79.8803287255,5836.520000000001,3056,0.0
09H01511,ESCUELA DE EDUCACION BASICA FISCAL MARITZA THALIA ALBAN QUIÑONEZ DE ARROBO,GUAYAS,GUAYAQUIL,-2.10249879488,-79.9579495574,11673.040000000003,6112,0.0
09H01521,ESCUELA DE EDUCACION BASICA FISCAL HUMBERTO MORE,GUAYAS,GUAYAQUIL,-2.10242781477,-79.95234796,11673.040000000003,6112,5748.0
09H01554,ESCUELA DE EDUCACION BASICA FISCAL LEON DE FEBRES CORDERO,GUAYAS,GUAYAQUIL,-2.15335564974,-79.8873500849,2918.2600000000007,1528,5748.0
09H01568,ESCUELA DE EDUCACION BASICA FISCAL EDUARDO ESTRELLA AGUIRRE,GUAYAS,GUAYAQUIL,-2.1282460146,-79.9414800146,11673.040000000003,6112,5748.0
09H01574,ESCUELA DE EDUCACIÓN BÁSICA FISCAL ELIAS MUÑOZ VICUÑA,GUAYAS,GUAYAQUIL,-2.08647217238,-79.9275555542,11673.040000000003,6112,5748.0
09H01602,UNIDAD EDUCATIVA FISCAL CARLOS MONTEVERDE ROMERO,GUAYAS,GUAYAQUIL,-2.18797701148,-79.9017559844,5836.520000000001,3056,0.0
09H01681,ESCUELA DE EDUCACIÓN BÁSICA FISCAL EMMA ESPERANZA ORTIZ BERMEO,GUAYAS,GUAYAQUIL,-2.12721611215,-79.8973505298,11673.040000000003,6112,5748.0
09H01688,ESCUELA DE EDUCACION BASICA FISCAL MARIA EUGENIA PUIG LINCE,GUAYAS,GUAYAQUIL,-2.08702368408,-79.9361647018,5836.520000000001,3056,0.0
09H01697,ESCUELA DE EDUCACION BASICA FISCAL DRA MAURA CASTRO DE MARIN,GUAYAS,GUAYAQUIL,-2.12683918928,-79.9261799643,8754.780000000002,4584,0.0
09H01717,ESCUELA DE EDUCACION BASICA FISCAL ELIAS RIVERO GONGORA,GUAYAS,GUAYAQUIL,-2.12880597338,-79.9239879577,11673.040000000003,6112,0.0
09H01745,UNIDAD EDUCATIVA FISCAL JOSE MARTINEZ QUEIROLO,GUAYAS,GUAYAQUIL,-2.12113402808,-79.9191830296,23346.080000000005,12224,0.0
09H01752,UNIDAD EDUCATIVA FISCAL PROVINCIA DE TUNGURAHUA,GUAYAS,GUAYAQUIL,-2.13891336185,-79.8867120758,2918.2600000000007,1528,5748.0
09H01775,ESCUELA DE EDUCACION BASICA  FISCAL GUADALUPE LARRIVA GONZALEZ,GUAYAS,GUAYAQUIL,-2.10890448477,-79.9577935289,23346.080000000005,12224,5748.0
09H01792,ESCUELA DE EDUCACION BASICA FISCAL LUCILA ARAUJO Y GARCIA,GUAYAS,GUAYAQUIL,-2.08561097167,-79.9657629027,5836.520000000001,3056,5748.0
09H01798,UNIDAD EDUCATIVA FISCAL  FERMIN VERA ROJAS,GUAYAS,GUAYAQUIL,-2.09618398356,-79.9611748502,8754.780000000002,4584,0.0
09H01802,ESCUELA DE EDUCACION BASICA FISCAL MARIA BARQUET DE ISAIAS,GUAYAS,GUAYAQUIL,-2.12537500921,-79.9346640167,5836.520000000001,3056,5748.0
09H01803,UNIDAD EDUCATIVA  FISCAL ADALBERTO ORTIZ QUIÑONEZ,GUAYAS,GUAYAQUIL,-2.12428928976,-79.9686368728,11673.040000000003,6112,5748.0
09H01868,UNIDAD EDUCATIVA FISCAL LUIS ALFREDO NOBOA ICAZA,GUAYAS,GUAYAQUIL,-2.081888847,-79.9272777749,17509.560000000005,9168,0.0
09H01882,UNIDAD EDUCATIVA FISCAL FUERTE MILITAR HUANCAVILCA,GUAYAS,GUAYAQUIL,-2.11422103699,-79.9265689928,8754.780000000002,4584,5748.0
09H01913,UNIDAD EDUCATIVA FISCAL CLARA BRUNO DE PIANA,GUAYAS,GUAYAQUIL,-2.15274796884,-79.936235007,5836.520000000001,3056,0.0
09H01924,ESCUELA DE EDUCACION BASICA FISCAL ROSA BORJA DE IZQUIERDO,GUAYAS,GUAYAQUIL,-2.1949162133,-79.9039996488,5836.520000000001,3056,0.0
09H01927,ESCUELA DE EDUCACIÓN BASICA  FISCAL DR. RAUL CLEMENTE HUERTA RENDON,GUAYAS,GUAYAQUIL,-2.19107945331,-79.9044744114,8754.780000000002,4584,5748.0
09H01948,ESCUELA DE EDUCACION BASICA FISCAL ESTADOS UNIDOS,GUAYAS,GUAYAQUIL,-2.09317006857,-79.9544411576,5836.520000000001,3056,5748.0
09H02005,ESCUELA DE EDUCACION BASICA COMPLETA FISCAL ANA VILLAMIL ICAZA,GUAYAS,GUAYAQUIL,-2.21821286884,-79.8965170763,5836.520000000001,3056,5748.0
09H02013,ESCUELA DE EDUCACION BASICA FISCAL CARLOS URGILES GONZALEZ,GUAYAS,GUAYAQUIL,-2.26623407806,-79.8827457603,8754.780000000002,4584,5748.0
09H02018,ESCUELA DE EDUCACIÓN BÁSICA FISCAL ISABEL HERRERÍA HERRERÍA,GUAYAS,GUAYAQUIL,-2.22676911289,-79.9185116277,11673.040000000003,6112,5748.0
09H02032,UNIDAD EDUCATIVA FISCAL JOSE ALFREDO LLERENA,GUAYAS,GUAYAQUIL,-2.2205228482,-79.8993340185,8754.780000000002,4584,5748.0
09H02036,ESCUELA DE EDUCACIÓN BÁSICA FISCAL SARGENTO GABRIEL SOLIS MOREIRA,GUAYAS,GUAYAQUIL,-2.24984937444,-79.9246887851,5836.520000000001,3056,0.0
09H02056,ESCUELA DE EDUCACION BASICA FISCAL HEROES DEL CENEPA,GUAYAS,GUAYAQUIL,-2.24202918253,-79.9172165884,5836.520000000001,3056,0.0
09H02067,ESCUELA DE EDUCACION BASICA FISCAL ANTONIO JOSE DE SUCRE,GUAYAS,GUAYAQUIL,-2.21410041832,-79.891805035,5836.520000000001,3056,5748.0
09H02076,ESCUELA DE EDUCACION BASICA FISCAL ECUADOR ANTARTICO,GUAYAS,GUAYAQUIL,-2.24224103686,-79.9268761679,11673.040000000003,6112,0.0
09H02083,ESCUELA DE EDUCACIÓN BÁSICA FISCAL RIO PUTUMAYO,GUAYAS,GUAYAQUIL,-2.27268124219,-79.8784816353,5836.520000000001,3056,0.0
09H02086,CENTRO DE EDUCACION INICIAL FISCAL FRANCISCO GRANIZO RIBADENEIRA,GUAYAS,GUAYAQUIL,-2.22696885159,-79.9102252902,23346.080000000005,12224,0.0
09H02134,UNIDAD EDUCATIVA FISCAL ALEJO LASCANO BAHAMONDE,GUAYAS,GUAYAQUIL,-2.04814230574,-79.9493786497,2918.2600000000007,1528,0.0
09H02183,ESCUELA DE EDUCACION BASICA FISCAL LUIS VARGAS TORRES,GUAYAS,GUAYAQUIL,-2.27127441417,-79.8760605367,5836.520000000001,3056,0.0
09H02207,ESCUELA DE EDUCACION BASICA FISCAL PROVINCIA DE EL ORO,GUAYAS,GUAYAQUIL,-2.24315613111,-79.9144963162,8754.780000000002,4584,5748.0
09H02254,ESCUELA DE EDUCACION BASICA FISCAL JOSE SALCEDO DELGADO,GUAYAS,GUAYAQUIL,-2.23496127739,-79.9027002909,11673.040000000003,6112,0.0
09H02295,ESCUELA DE EDUCACION BASICA FISCAL BLANCA GOETTA DE ORDOÑEZ,GUAYAS,GUAYAQUIL,-2.2714757966,-79.891822554,8754.780000000002,4584,0.0
09H02325,ESCUELA DE EDUCACIÓN BÁSICA FISCAL DR CARLOS ORTIZ MACÍAS,GUAYAS,GUAYAQUIL,-2.28516952321,-79.8879402423,5836.520000000001,3056,5748.0
09H02352,ESCUELA DE EDUCACION BASICA FISCAL MERCEDES GONZALEZ DE MOSCOSO,GUAYAS,GUAYAQUIL,-2.23965868912,-79.8889555642,2918.2600000000007,1528,0.0
09H02360,ESCUELA DE EDUCACION BASICA COMPLETA FISCAL JOSE HERBOSO,GUAYAS,GUAYAQUIL,-2.24051601861,-79.892757227,11673.040000000003,6112,0.0
09H02363,ESCUELA DE EDUCACION BASICA FISCAL FRANCISCO FALQUEZ AMPUERO,GUAYAS,GUAYAQUIL,-2.21952011248,-79.888575481,5836.520000000001,3056,5748.0
09H02364,ESCUELA DE EDUCACION BASICA FISCAL CLARA WITHER FERRETTI,GUAYAS,GUAYAQUIL,-2.25184608342,-79.8858712919,23346.080000000005,12224,5748.0
09H02378,"UNIDAD EDUCATIVA FISCAL ""DRA. MARIA LUISA MARISCAL DE GUEVARA""",GUAYAS,GUAYAQUIL,-2.25627060289,-79.8737553236,5836.520000000001,3056,5748.0
09H02401,ESCUELA DE EDUCACION BASICA FISCAL CIUDAD DE MACHALA,GUAYAS,GUAYAQUIL,-2.26711433177,-79.877102146,5836.520000000001,3056,0.0
09H02423,ESCUELA DE EDUCACION BASICA FISCAL FLORA SALAZAR DE LOOR,GUAYAS,GUAYAQUIL,-2.2637105237,-79.8944075576,5836.520000000001,3056,0.0
09H02443,ESCUELA DE EDUCACIÓN BÁSICA FISCAL DRA BERTHA VALVERDE DE DUARTE,GUAYAS,GUAYAQUIL,-2.23212166325,-79.9192753604,5836.520000000001,3056,5748.0
09H02449,ESCUELA DE EDUCACION BASICA FISCAL ALFREDO BARANDEARAN SAMANIEGO,GUAYAS,GUAYAQUIL,-2.27819033113,-79.8757877589,5836.520000000001,3056,5748.0
09H02451,UNIDAD EDUCATIVA FISCAL CIUDAD DE RIOBAMBA,GUAYAS,GUAYAQUIL,-2.28231657861,-79.8850273674,11673.040000000003,6112,0.0
09H02453,ESCUELA DE EDUCACIÓN BÁSICA FISCAL LUIS FELIPE HERNANDEZ TELLO,GUAYAS,GUAYAQUIL,-2.23838433223,-79.9204632037,5836.520000000001,3056,0.0
09H02463,UNIDAD EDUCATIVA FISCAL MIGUEL DONOSO PAREJA,GUAYAS,GUAYAQUIL,-2.11505613887,-79.9818396456,23346.080000000005,12224,5748.0
09H02480,ESCUELA DE EDUCACION BASICA FISCAL HEROES DE PAQUISHA,GUAYAS,GUAYAQUIL,-2.25521670914,-79.8823741861,23346.080000000005,12224,5748.0
09H02488,ESCUELA DE EDUCACIÓN BÁSICA FISCAL CIUDAD DE CUENCA,GUAYAS,GUAYAQUIL,-2.25266741355,-79.9005578774,5836.520000000001,3056,5748.0
09H02503,ESCUELA DE EDUCACION BASICA FISCAL GUILLERMO SOTO ZATIZABAL,GUAYAS,GUAYAQUIL,-2.25988105374,-79.8780193177,11673.040000000003,6112,0.0
09H02510,ESCUELA DE EDUCACION BASICA FISCAL DR  MODESTO  CHAVEZ  FRANCO,GUAYAS,GUAYAQUIL,-2.21958091481,-79.8972479028,5836.520000000001,3056,0.0
09H02526,UNIDAD EDUCATIVA FISCAL JAIME ROLDOS AGUILERA,GUAYAS,GUAYAQUIL,-2.25705397127,-79.8975112384,11673.040000000003,6112,5748.0
09H02617,UNIDAD EDUCATIVA FISCAL LUIS PAUTA RODRÍGUEZ,GUAYAS,GUAYAQUIL,-2.23595955312,-79.920428919,11673.040000000003,6112,0.0
09H02636,ESCUELA DE EDUCACION BASICA LIBERTADOR BOLIVAR,GUAYAS,GUAYAQUIL,-2.21725459984,-80.0812955657,11673.040000000003,6112,0.0
09H02639,UNIDAD EDUCATIVA FISCAL PUERTO HONDO,GUAYAS,GUAYAQUIL,-2.19203321644,-80.0252178037,5836.520000000001,3056,0.0
09H02649,ESCUELA DE EDUCACION BASICA FISCAL NUEVA ESPERANZA,GUAYAS,GUAYAQUIL,-2.19077097141,-80.0534375191,5836.520000000001,3056,0.0
09H02660,UNIDAD EDUCATIVA LUIS ENRIQUE MORALES ALFARO,GUAYAS,GUAYAQUIL,-2.20675894441,-80.0704038385,5836.520000000001,3056,0.0
09H02713,ESCUELA DE EDUCACION BASICA FISCAL EFREN AVILES PINO,GUAYAS,GUAYAQUIL,-2.04004441657,-79.9825051822,2918.2600000000007,1528,0.0
09H02719,UNIDAD EDUCATIVA FISCAL ALFREDO PORTALUPPI VELÁSQUEZ,GUAYAS,GUAYAQUIL,-2.06971685312,-79.9314663454,5836.520000000001,3056,5748.0
09H02759,UNIDAD EDUCATIVA FISCAL VICENTE DE PIEDRAHITA CARBO,GUAYAS,GUAYAQUIL,-2.0451022855,-79.9424688674,5836.520000000001,3056,5748.0
09H02764,UNIDAD EDUCATIVA FISCAL MODESTO WOLF PASAGUAY,GUAYAS,GUAYAQUIL,-2.02480563079,-79.9511562339,2918.2600000000007,1528,0.0
09H02770,CENTRO DE EDUCACION INICIAL CESAR ANDRADE CORDERO,GUAYAS,GUAYAQUIL,-2.09279780306,-79.9132438104,17509.560000000005,9168,5748.0
09H02775,UNIDAD EDUCATIVA FISCAL CARLOS JULIO AROSEMENA TOLA,GUAYAS,GUAYAQUIL,-2.07313442207,-79.9331330595,5836.520000000001,3056,0.0
09H02782,ESCUELA DE EDUCACION BASICA FISCAL ISIDRO AYORA CUEVA,GUAYAS,GUAYAQUIL,-2.07067208478,-79.9340258969,11673.040000000003,6112,0.0
09H02815,UNIDAD EDUCATIVA  FISCAL 24 DE SEPTIEMBRE,GUAYAS,GUAYAQUIL,-2.57925401806,-80.0044637236,5836.520000000001,3056,5748.0
09H02816,UNIDAD EDUCATIVA FISCAL “JUAN LEÓN MERA”,GUAYAS,GUAYAQUIL,-2.82565349634,-80.1371837993,5836.520000000001,3056,5748.0
09H02826,ESCUELA DE EDUCACIÓN BÁSICA FISCAL NICOLAS AUGUSTO GONZALEZ,GUAYAS,GUAYAQUIL,-2.73980964467,-79.9080921316,5836.520000000001,3056,5748.0
09H02827,ESCUELA DE EDUCACIÓN BÁSICA FISCAL CACIQUE TUMBALA,GUAYAS,GUAYAQUIL,-2.73630852518,-79.9115755851,5836.520000000001,3056,0.0
09H02830,UNIDAD EDUCATIVA FISCAL AMÉRICA,GUAYAS,GUAYAQUIL,-2.94773839032,-80.1394569785,5836.520000000001,3056,0.0
09H02842,UNIDAD EDUCATIVA TENGUEL SARAGURO,GUAYAS,GUAYAQUIL,-2.99215562751,-79.7873366436,23346.080000000005,12224,0.0
09H02844,MARIA MONTESSORI,GUAYAS,GUAYAQUIL,-2.99618462028,-79.7891826155,5836.520000000001,3056,5748.0
09H02852,UNIDAD EDUCATIVA TEODORO WOLF,GUAYAS,ALFREDO BAQUERIZO MORENO,-1.89426435921,-79.5538868076,5836.520000000001,3056,5748.0
09H02876,UNIDAD EDUCATIVA CINCO DE JUNIO,GUAYAS,ALFREDO BAQUERIZO MORENO,-1.95132963727,-79.5911526196,5836.520000000001,3056,0.0
09H02891,UNIDAD EDUCATIVA SABINO EIPACIO ROSALES PANCHANA,GUAYAS,BALAO,-2.90522634347,-79.8115714385,14591.300000000003,7640,0.0
09H02892,ESCUELA DE EDUCACIÓN BASICA DOCE DE OCTUBRE,GUAYAS,BALAO,-2.90527523902,-79.7083048823,8754.780000000002,4584,5748.0
09H02910,ESCUELA DE EDUCACION BASICA JOAQUIN GALLEGOS LARA,GUAYAS,BALAO,-2.91868304174,-79.7674933051,5836.520000000001,3056,0.0
09H02950,ESCUELA DE EDUCACION BASICA CLEMENTINA TRIVIÑO DE UNDA,GUAYAS,BALZAR,-1.36873673621,-79.8977740177,5836.520000000001,3056,0.0
09H02967,ESCUELA DE EDUCACION BASICA DIECINUEVE DE MAYO,GUAYAS,BALZAR,-1.37337184475,-79.9059326858,11673.040000000003,6112,0.0
09H03017,ESPERANZA CAPUTI OLVERA,GUAYAS,BALZAR,-1.36659794026,-79.9086680025,8754.780000000002,4584,0.0
09H03030,ESCUELA DE EDUCACIÓN BÁSICA SINALOA,GUAYAS,BALZAR,-1.35856268953,-79.9026409336,8754.780000000002,4584,5748.0
09H03053,ESCUELA DE EDUCACION BASICA PABLO NIVELA CARRIEL,GUAYAS,BALZAR,-1.3645332215,-79.9035999093,11673.040000000003,6112,5748.0
09H03070,ESCUELA DE EDUCACION BASICA VICTOR MANUEL RENDON,GUAYAS,BALZAR,-1.36592556583,-79.9021253075,11673.040000000003,6112,0.0
09H03076,ESCUELA DE EDUCACION BASICA ELOY ALFARO,GUAYAS,BALZAR,-1.18837106672,-79.7572708611,5836.520000000001,3056,0.0
09H03098,ESCUELA DE EDUCACION BASICA RUMIÑAHUI,GUAYAS,COLIMES,-1.55339143128,-80.0420403785,2918.2600000000007,1528,5748.0
09H03099,ESCUELA DE EDUCACION BASICA UNION Y PROGRESO,GUAYAS,COLIMES,-1.59100322885,-79.9647912691,8754.780000000002,4584,0.0
09H03124,ESCUELA DE EDUCACION BASICA EUGENIO ESPEJO,GUAYAS,COLIMES,-1.54644872917,-80.0127942756,5836.520000000001,3056,0.0
09H03159,ESCUELA DE EDUCACION BASICA MARIETA ESCOBAR GAVILANEZ,GUAYAS,COLIMES,-1.54752443239,-80.0111758194,8754.780000000002,4584,5748.0
09H03174,UNIDAD EDUCATIVA SAN JACINTO,GUAYAS,COLIMES,-1.6208980805,-79.9978104048,8754.780000000002,4584,5748.0
09H03198,ESCUELA DE EDUCACION BASICA MARINA GALLARDO,GUAYAS,DAULE,-2.05410703383,-79.8820712642,8754.780000000002,4584,5748.0
08H01275,UNIDAD EDUCATIVA  ATACAMES,ESMERALDAS,ATACAMES,0.867317776744,-79.855564916,11673.040000000003,6112,5748.0
09H03247,ESCUELA DE EDUCACION BASICA ELOY ALFARO,GUAYAS,DAULE,-1.86744398837,-79.9848690625,11673.040000000003,6112,0.0
09H03252,ESCUELA DE EDUCACIÓN BÁSICA ETELVINA CARBO PLAZA,GUAYAS,DAULE,-1.85599724863,-79.9782859368,8754.780000000002,4584,0.0
09H03253,ESCUELA DE EDUCACION BASICA DR JOSE MARIA CARBO AGUIRRE,GUAYAS,DAULE,-1.85414377323,-79.9798512584,2918.2600000000007,1528,5748.0
09H03256,ESCUELA DE EDUCACIÓN BÁSICA LUIS MIGUEL VELASCO NAVARRO,GUAYAS,DAULE,-1.84258525097,-79.9991772816,5836.520000000001,3056,0.0
09H03280,ESCUELA DE EDUCACIÓN BÁSICA 26 DE NOVIEMBRE,GUAYAS,DAULE,-1.85431723573,-79.9826020981,2918.2600000000007,1528,0.0
09H03317,ESCUELA DE EDUCACIÓN BÁSICA JOSE JOAQUIN DE OLMEDO,GUAYAS,DAULE,-1.88678964415,-79.9342975784,5836.520000000001,3056,5748.0
09H03323,ESCUELA DE EDUCACION BASICA CINCO  DE MAYO,GUAYAS,DAULE,-1.87121334559,-79.8771225056,5836.520000000001,3056,5748.0
09H03325,ESCUELA DE EDUCACION BASICA ENRIUR,GUAYAS,DAULE,-1.83833597909,-79.8962102581,2918.2600000000007,1528,5748.0
09H03361,UNIDAD EDUCATIVA PLAN INTERNACIONAL,GUAYAS,DAULE,-1.78038031805,-79.909801316,5836.520000000001,3056,0.0
09H03363,UNIDAD EDUCATIVA MATILDE HIDALGO DE PROCEL,GUAYAS,SALITRE,-1.78363375263,-79.9066367398,5836.520000000001,3056,0.0
09H03371,ESCUELA DE EDUCACIÓN BÁSICA PADRE JUAN DE VELASCO,GUAYAS,DAULE,-1.78491098763,-79.9078479415,5836.520000000001,3056,0.0
09H03387,ESCUELA DE EDUCACION BASICA ISMAEL PÉREZ PAZMIÑO,GUAYAS,DAULE,-1.80123216925,-80.0239580608,5836.520000000001,3056,5748.0
09H03397,UNIDAD EDUCATIVA ROSA OLGA VILLACRES LOZANO,GUAYAS,DAULE,-1.79271020417,-80.0059110998,11673.040000000003,6112,0.0
09H03405,UNIDAD EDUCATIVA MANUELA CAÑIZARES,GUAYAS,LOMAS DE SARGENTILLO,-1.87891555097,-80.0852477849,14591.300000000003,7640,0.0
09H03407,ESCUELA DE EDUCACION BASICA CIUDAD DE AZOGUES,GUAYAS,LOMAS DE SARGENTILLO,-1.87246014695,-80.0919040144,5836.520000000001,3056,0.0
09H03430,ESCUELA DE EDUCACION BASICA LUIS FELIPE BORJA ,GUAYAS,DAULE,-1.96059650497,-79.9685503903,2918.2600000000007,1528,0.0
09H03432,ESCUELA DE EDUCACION BASICA 4 DE OCTUBRE,GUAYAS,DAULE,-1.9919292063,-79.8699677955,5836.520000000001,3056,0.0
09H03443,UNIDAD EDUCATIVA VICTORIA TORRES DE NEIRA,GUAYAS,DAULE,-2.01365113557,-79.9426690264,5836.520000000001,3056,0.0
07H00496,ESCUELA DE EDUCACIÓN BÁSICA ODALIA  ARÁUZ,EL ORO,ATAHUALPA,-3.47255558104,-79.7334721907,5836.520000000001,3056,5748.0
09H03454,ESCUELA DE EDUCACION BASICA FISCAL GUILLERMO DAVIS,GUAYAS,DURAN,-2.17055628252,-79.8435228897,5836.520000000001,3056,5748.0
09H03459,ESCUELA DE EDUCACION BASICA FISCAL BRONISLAW WIERDAK FERAUD,GUAYAS,DURAN,-2.15636675133,-79.8252865271,5836.520000000001,3056,5748.0
09H03467,ESCUELA DE EDUCACION BASICA FISCAL DANIEL TORRES PONCE,GUAYAS,DURAN,-2.26686659841,-79.8269839447,2918.2600000000007,1528,0.0
09H03496,ESCUELA DE EDUCACION BASICA FISCAL RINA ORTIZ DE BUCARAM,GUAYAS,DURAN,-2.15732181767,-79.8420313806,5836.520000000001,3056,5748.0
09H03514,ESCUELA DE EDUCACION BASICA FISCAL 16 DE OCTUBRE,GUAYAS,DURAN,-2.17860740186,-79.8563115015,8754.780000000002,4584,5748.0
09H03517,ESCUELA DE EDUCACION BASICA FISCAL JOSE DURAN MARISTANY,GUAYAS,DURAN,-2.18184449465,-79.8548074901,5836.520000000001,3056,0.0
09H03530,ESCUELA DE EDUCACION BASICA FISCAL MARIA TERESA SOLA DE ESTRADA,GUAYAS,DURAN,-2.15483570025,-79.8320080668,5836.520000000001,3056,0.0
09H03534,ESCUELA DE EDUCACION BASICA FISCAL GUSTAVO LEMUS RAMIREZ,GUAYAS,DURAN,-2.16413976836,-79.8418392871,11673.040000000003,6112,0.0
09H03537,ESCUELA DE EDUCACION BASICA FISCAL CIUDAD DE BABAHOYO,GUAYAS,DURAN,-2.1603770274,-79.8369277055,11673.040000000003,6112,0.0
09H03538,ESCUELA DE EDUCACION BASICA FISCAL CIUDAD DE ZAMORA,GUAYAS,DURAN,-2.16892184534,-79.8351507183,17509.560000000005,9168,0.0
09H03551,SIMON BOLIVAR,GUAYAS,DURAN,-2.17302952379,-79.8136879262,2918.2600000000007,1528,0.0
09H03554,ESCUELA DE EDUCACION BASICA FISCAL LUIS SANCHEZ BORJA,GUAYAS,DURAN,-2.16033273019,-79.8258517264,5836.520000000001,3056,5748.0
09H03590,ESCUELA DE EDUCACION BASICA CARLOS JULIO PEREZ PERASSO,GUAYAS,DURAN,-2.16868711131,-79.8013913633,8754.780000000002,4584,5748.0
09H03601,ESCUELA DE EDUCACION BASICA FISCAL VICTOR MURILLO SOTO,GUAYAS,DURAN,-2.14846913204,-79.8351430921,5836.520000000001,3056,5748.0
09H03605,ESCUELA DE EDUCACION BASICA FISCAL GONZALO BENITEZ GOMEZ,GUAYAS,DURAN,-2.17120234084,-79.8022255629,11673.040000000003,6112,0.0
09H03672,ESCUELA DE EDUCACION BASICA FISCAL IVAN GALLEGOS DOMINGUEZ,GUAYAS,DURAN,-2.17640643501,-79.8462143161,5836.520000000001,3056,5748.0
09H03690,UNIDAD EDUCATIVA FISCAL  ARTURO MUNIZAGA PALACIOS,GUAYAS,DURAN,-2.3101678997,-79.7345203495,5836.520000000001,3056,0.0
09H03697,ESCUELA DE EDUCACION BASICA FISCAL ABDON CALDERON MUÑOZ,GUAYAS,DURAN,-2.16909379827,-79.8248008304,8754.780000000002,4584,0.0
09H03708,ESCUELA DE EDUCACION BASICA FICAL PABLO SANDIFORD AMADOR,GUAYAS,DURAN,-2.16883761462,-79.8463978188,8754.780000000002,4584,0.0
09H03730,ESCUELA DE EDUCACION BASICA FISCAL SANTIAGO REWOOD,GUAYAS,DURAN,-2.1718208485,-79.8195961133,11673.040000000003,6112,5748.0
09H03769,ESCUELA DE EDUCACION BASICA 2 DE MAYO,GUAYAS,EL EMPALME,-1.04585842969,-79.6336849014,11673.040000000003,6112,0.0
09H03791,UNIDAD EDUCATIVA  29 DE SEPTIEMBRE,GUAYAS,EL EMPALME,-1.04105278212,-79.6478124589,11673.040000000003,6112,5748.0
09H03793,ESCUELA DE EDUCACION BASICA ISABEL MARIA LUQUE DE PONCE,GUAYAS,EL EMPALME,-1.05626317032,-79.6412553305,11673.040000000003,6112,0.0
09H03797,ESCUELA DE EDUCACION BASICA UNION EMPALMENSE,GUAYAS,EL EMPALME,-1.03841743921,-79.6347022281,5836.520000000001,3056,0.0
09H03798,ESCUELA DE EDUCACION BASICA CASPICARA,GUAYAS,EL EMPALME,-1.04651099659,-79.6425655284,8754.780000000002,4584,0.0
09H03800,UNIDAD EDUCATIVA GUAYAS Y QUIL,GUAYAS,EL EMPALME,-1.0924715918,-79.6465319906,5836.520000000001,3056,5748.0
09H03822,UNIDAD EDUCATIVA CORONEL PEDRO VELEZ MORAN,GUAYAS,EL EMPALME,-1.00836204587,-79.7577877865,5836.520000000001,3056,5748.0
09H03832,ESCUELA DE EDUCACION BASICA PEDRO J MENENDEZ NAVARRO,GUAYAS,EL EMPALME,-1.04347051643,-79.6369457519,8754.780000000002,4584,5748.0
09H03844,ESCUELA DE EDUCACION BASICA VICENTE ROCAFUERTE,GUAYAS,EL EMPALME,-1.04571600366,-79.7665488523,5836.520000000001,3056,5748.0
09H03858,ESCUELA DE EDUCACION BASICA JUAN MONTALVO,GUAYAS,EL EMPALME,-1.04081206386,-79.6418706831,8754.780000000002,4584,0.0
09H03860,ESCUELA DE EDUCACION BASICA SEGUNDO AUHING MEDINA ,GUAYAS,EL EMPALME,-1.05250395171,-79.6294356576,8754.780000000002,4584,5748.0
09H03866,ESCUELA DE EDUCACION BASICA RUMIÑAHUI,GUAYAS,EL EMPALME,-0.985405495201,-79.5720185665,5836.520000000001,3056,0.0
09H03871,ESCUELA DE EDUCACION BASICA CIUDAD DE GUAYAQUIL,GUAYAS,EL EMPALME,-0.585876530449,-79.511077174,5836.520000000001,3056,5748.0
09H03875,ESCUELA DE EDUCACION BASICA  ESTADOS UNIDOS DE NORTEAMERICA,GUAYAS,EL EMPALME,-0.981309985632,-79.5722355039,2918.2600000000007,1528,5748.0
09H03921,ESCUELA DE EDUCACION BASICA DOCE DE OCTUBRE,GUAYAS,EL EMPALME,-0.934149365315,-79.7270366954,5836.520000000001,3056,0.0
09H03934,ESCUELA DE EDUCACION BASICA ALBERT EINSTEIN,GUAYAS,EL EMPALME,-1.04637690544,-79.5608204194,2918.2600000000007,1528,0.0
09H03969,ESCUELA DE EDUCACION BASICA PROVINCIAS UNIDAS,GUAYAS,EL EMPALME,-1.05134204631,-79.792150486,5836.520000000001,3056,5748.0
09H03972,ESCUELA DE EDUCACION BASICA DAULE PERIPA,GUAYAS,EL EMPALME,-0.932610807219,-79.7503660239,5836.520000000001,3056,0.0
09H04020,ESCUELA DE EDUCACIÓN BASICA ALEJO LASCANO,GUAYAS,EL TRIUNFO,-2.33121213074,-79.4037920831,17509.560000000005,9168,0.0
09H04055,ESCUELA DE EDUCACIÓN BÁSICA GENERAL ANTONIO JOSÉ DE SUCRE,GUAYAS,EL TRIUNFO,-2.32555316214,-79.3979186059,2918.2600000000007,1528,5748.0
09H04060,ESCUELA DE EDUCACIÓN BÁSICA  JUAN MONTALVO,GUAYAS,EL TRIUNFO,-2.33193948277,-79.407180739,11673.040000000003,6112,5748.0
09H04093,ESCUELA DE EDUCACION BASICA DR OSVALDO HURTADO LARREA,GUAYAS,MILAGRO,-2.15211687105,-79.5819056692,8754.780000000002,4584,0.0
09H04094,UNIDAD EDUCATIVA ARQUEOLOGO JULIO VITERI GAMBOA,GUAYAS,MILAGRO,-2.11985903602,-79.5956541806,8754.780000000002,4584,5748.0
09H04096,ESCUELA DE EDUCACION BASICA LEON DE FEBRES CORDERO,GUAYAS,MILAGRO,-2.1619980969,-79.6064133075,5836.520000000001,3056,0.0
09H04099,UNIDAD EDUCATIVA TENIENTE HUGO ORTIZ,GUAYAS,MILAGRO,-2.18435847647,-79.6187189046,8754.780000000002,4584,0.0
09H04100,UNIDAD EDUCATIVA DR MODESTO CHAVEZ FRANCO,GUAYAS,MILAGRO,-2.13174564746,-79.5980438254,17509.560000000005,9168,5748.0
09H04116,UNIDAD EDUCATIVA PAULINO MILAN HERRERA,GUAYAS,MILAGRO,-2.12501523155,-79.5769320507,5836.520000000001,3056,0.0
09H04138,ESCUELA DE EDUCACION BASICA 17 DE SEPTIEMBRE,GUAYAS,MILAGRO,-2.12378461636,-79.5959652948,8754.780000000002,4584,5748.0
09H04150,ESCUELA DE EDUCACION BASICA VEINTICUATRO  DE MAYO,GUAYAS,MILAGRO,-2.13657380844,-79.606193627,17509.560000000005,9168,0.0
09H04175,ESCUELA DE EDUCACION BASICA ALFONSO ARAUZ,GUAYAS,MILAGRO,-2.20253616523,-79.5785230272,2918.2600000000007,1528,0.0
09H04185,ESCUELA DE EDUCACION BASICA CARLOS MORENO ARIAS,GUAYAS,MILAGRO,-2.13313124854,-79.5901581484,17509.560000000005,9168,5748.0
09H04192,ESCUELA DE EDUCACION BASICA ROBERTO ESPINDOLA MALDONADO,GUAYAS,MILAGRO,-2.1202718858,-79.5921566422,11673.040000000003,6112,0.0
09H04193,UNIDAD EDUCATIVA ELOY VELASQUEZ CEVALLOS,GUAYAS,MILAGRO,-2.1293825628,-79.5855046489,14591.300000000003,7640,5748.0
09H04199,ESCUELA DE EDUCACION BASICA EUGENIO ESPEJO,GUAYAS,MILAGRO,-2.13226585387,-79.5932785376,17509.560000000005,9168,5748.0
09H04208,ESCUELA DE EDUCACION BASICA MIGUEL VALVERDE,GUAYAS,MILAGRO,-2.11903051884,-79.589667499,8754.780000000002,4584,0.0
09H04210,ESCUELA DE EDUCACION BASICA DR ALFREDO PEREZ GUERRERO,GUAYAS,MILAGRO,-2.13563642276,-79.5998473423,17509.560000000005,9168,0.0
09H04225,UNIDAD EDUCATIVA OTTO AROSEMENA GOMEZ,GUAYAS,MILAGRO,-2.13843119394,-79.5803000394,11673.040000000003,6112,5748.0
09H04229,ESCUELA DE EDUCACION BASICA HECTOR LARA ZAMBRANO,GUAYAS,MILAGRO,-2.12731361207,-79.587915897,5836.520000000001,3056,5748.0
09H04230,UNIDAD EDUCATIVA SIMÓN BOLIVAR,GUAYAS,MILAGRO,-2.12375579782,-79.5941223362,11673.040000000003,6112,0.0
09H04242,ESCUELA DE EDUCACION BASICA MIGUEL ANDRADE MANRIQUE,GUAYAS,MILAGRO,-2.05330994888,-79.535626382,2918.2600000000007,1528,5748.0
09H04250,UNIDAD EDUCATIVA MARISCAL SUCRE,GUAYAS,MILAGRO,-2.10920704324,-79.501782209,11673.040000000003,6112,5748.0
09H04265,ESCUELA DE EDUCACION BASICA CARLOS BENJAMIN ROSALES,GUAYAS,MILAGRO,-2.14849321248,-79.5188701719,2918.2600000000007,1528,0.0
09H04266,ESCUELA DE EDUCACION BASICA JUDITH ACUÑA DE ROBLES,GUAYAS,MILAGRO,-2.18374631056,-79.5178649813,14591.300000000003,7640,0.0
09H04279,ESCUELA DE EDUCACIÓN BASICA CUCALON LASSO,GUAYAS,NARANJAL,-2.67749616707,-79.6140352278,14591.300000000003,7640,5748.0
09H04281,ESCUELA DE EDUCACIÓN BASICA CARMEN MORA DE ENCALADA,GUAYAS,NARANJAL,-2.67427489198,-79.6127617209,11673.040000000003,6112,5748.0
09H04284,ESCUELA DE EDUCACIÓN BASICA NUEVE DE OCTUBRE,GUAYAS,NARANJAL,-2.80209082789,-79.706953871,8754.780000000002,4584,0.0
09H04296,ESCUELA DE EDUCACION BASICA GABRIELA MISTRAL,GUAYAS,NARANJAL,-2.67849140225,-79.6223174802,8754.780000000002,4584,5748.0
09H04297,ESCUELA DE EDUCACIÓN BASICA ABDON CALDERÓN,GUAYAS,NARANJAL,-2.67380676596,-79.6226824659,14591.300000000003,7640,5748.0
09H04301,ESCUELA DE EDUCACIÓN BASICA MARIANO UNDA,GUAYAS,NARANJAL,-2.67481862135,-79.6216830168,14591.300000000003,7640,5748.0
09H04326,ESCUELA DE EDUCACIÓN BASICA 24 DE JULIO,GUAYAS,NARANJAL,-2.56056536702,-79.5535425355,5836.520000000001,3056,5748.0
09H04346,ESCUELA DE EDUCACIÓN BÁSICA CARLOS JULIO AROSEMENA TOLA,GUAYAS,NARANJAL,-2.59859739321,-79.6023683798,8754.780000000002,4584,0.0
09H04350,UNIDAD EDUCATIVA NARANJAL,GUAYAS,NARANJAL,-2.384802243,-79.6265840827,5836.520000000001,3056,5748.0
09H04360,ESCUELA DE EDUCACIÓN BÁSICA ARTURO SERRANO ARMIJOS,GUAYAS,NARANJAL,-2.31104337239,-79.7324154911,5836.520000000001,3056,5748.0
09H04395,UNIDAD EDUCATIVA ISMAEL PEREZ PAZMIÑO,GUAYAS,NARANJITO,-2.17067314415,-79.4595325459,8754.780000000002,4584,0.0
09H04422,ESCUELA DE EDUCACION BASICA CARLOS MATAMOROS JARA,GUAYAS,NARANJITO,-2.16954705266,-79.4638308566,8754.780000000002,4584,0.0
09H04424,ESCUELA DE EDUCACION BASICA DRA LUISA MARTIN GONZALEZ,GUAYAS,NARANJITO,-2.17237674803,-79.4628031481,11673.040000000003,6112,0.0
09H04448,ESCUELA DE EDUCACION BASICA ROSA BORJA DE ICAZA,GUAYAS,PALESTINA,-1.62941078844,-79.9810058552,8754.780000000002,4584,0.0
09H04499,ESCUELA DE EDUCACION BASICA DIECINUEVE DE JULIO,GUAYAS,PEDRO CARBO,-1.81066105565,-80.2364354781,8754.780000000002,4584,5748.0
09H04523,ESCUELA DE EDUCACION BASICA RIO PEDRO CARBO,GUAYAS,PEDRO CARBO,-1.81941940123,-80.2397672613,11673.040000000003,6112,0.0
09H04571,ESCUELA DE EDUCACION BASICA ELENA RODRIGUEZ SOTOMAYOR,GUAYAS,PEDRO CARBO,-1.71242332885,-80.2525764747,5836.520000000001,3056,0.0
09H04579,ESCUELA DE EDUCACION BASICA JUAN MODESTO CARBO NOBOA,GUAYAS,PEDRO CARBO,-1.81703730612,-80.2329804789,5836.520000000001,3056,0.0
09H04582,UNIDAD EDUCATIVA DR CARLOS MONTEVERDE ROMERO,GUAYAS,PEDRO CARBO,-1.81778019301,-80.2355154681,11673.040000000003,6112,5748.0
09H04585,ESCUELA DE EDUCACION BASICA COMPLETA FISCAL NELSON MATEUS MACIAS,GUAYAS,GUAYAQUIL,-2.24610924955,-79.8836007831,8754.780000000002,4584,0.0
09H04597,CENTRO DE EDUCACION INICIAL VALLE DE LA VIRGEN,GUAYAS,PEDRO CARBO,-1.74501199791,-80.1952161366,8754.780000000002,4584,0.0
09H04676,ESCUELA DE EDUCACIÓN BÁSICA FISCAL 26 DE JUNIO,GUAYAS,SAMBORONDON,-2.0778304704,-79.8530681529,5836.520000000001,3056,5748.0
09H04690,ESCUELA DE EDUCACIÓN BÁSICA FISCAL ELOY ALFARO,GUAYAS,SAMBORONDON,-1.9835635576,-79.758926967,5836.520000000001,3056,5748.0
09H04704,UNIDAD EDUCATIVA FISCAL OSWALDO GUAYASAMÍN,GUAYAS,SAMBORONDON,-1.99043115677,-79.7620863281,5836.520000000001,3056,5748.0
09H04712,ESCUELA DE EDUCACIÓN BÁSICA FISCAL 27 DE AGOSTO,GUAYAS,SAMBORONDON,-1.98488893584,-79.8131944139,5836.520000000001,3056,5748.0
09H04723,CENTRO DE EDUCACIÓN INICIAL FISCAL GABRIELA MISTRAL,GUAYAS,SAMBORONDON,-1.98030455427,-79.754049017,11673.040000000003,6112,0.0
09H04772,ESCUELA DE EDUCACION BASICA MARIETA DE VEINTIMILLA,GUAYAS,SANTA LUCIA,-1.77042191033,-80.007208569,5836.520000000001,3056,5748.0
09H04773,UNIDAD EDUCATIVA ENRIQUE LOPEZ LASCANO,GUAYAS,SANTA LUCIA,-1.73024551386,-79.9832638814,11673.040000000003,6112,0.0
09H04780,ESCUELA DE EDUCACION BASICA MARIA PIEDAD CASTILLO DE LEVI,GUAYAS,SANTA LUCIA,-1.74659533728,-80.0076436691,5836.520000000001,3056,5748.0
09H04782,ESCUELA DE EDUCACIÓN BÁSICA UBALDO URQUIZO VILLENA,GUAYAS,SANTA LUCIA,-1.71075088425,-79.98152129,5836.520000000001,3056,0.0
09H04794,ESCUELA DE EDUCACION BASICA NICOLAS SEGOVIA,GUAYAS,SANTA LUCIA,-1.72969185247,-79.8993582959,5836.520000000001,3056,0.0
09H04795,ESCUELA DE EDUCACION BASICA SIXTO LIBORIO MACIAS,GUAYAS,SANTA LUCIA,-1.70643733838,-80.0185955671,5836.520000000001,3056,0.0
09H04802,ESCUELA DE EDUCACION BASICA CARCHI MACARA,GUAYAS,SANTA LUCIA,-1.7526312865,-80.0292694737,5836.520000000001,3056,5748.0
09H04825,ESCUELA DE EDUCACIÓN BÁSICA RAFAEL MORAN VALVERDE,GUAYAS,SALITRE,-1.8296366979,-79.8095765964,8754.780000000002,4584,0.0
09H04841,ESCUELA DE EDUCACION BASICA FRANCISCO IÑIGUEZ CASTRO,GUAYAS,SALITRE,-1.82986078409,-79.8138365959,11673.040000000003,6112,5748.0
09H04860,UNIDAD EDUCATIVA 27 DE NOVIEMBRE,GUAYAS,SALITRE,-1.83554465366,-79.831316384,5836.520000000001,3056,5748.0
09H04873,UNIDAD EDUCATIVA ZENON VELEZ VITERI,GUAYAS,SALITRE,-1.81295860282,-79.7566188873,5836.520000000001,3056,5748.0
09H04874,ESCUELA DE EDUCACION BASICA 9 DE OCTUBRE,GUAYAS,SALITRE,-1.76393299402,-79.790748714,11673.040000000003,6112,5748.0
09H04904,ESCUELA DE EDUCACIÓN BÁSICA JOSÉ MEJÍA LEQUERICA,GUAYAS,SALITRE,-1.84618801304,-79.7413490996,5836.520000000001,3056,0.0
09H04924,ESCUELA DE EDUCACION BASICA OTTO AROSEMENA GOMEZ,GUAYAS,SALITRE,-1.71650999685,-79.8646890433,5836.520000000001,3056,5748.0
09H04968,ESCUELA DE EDUCACION BASICA LICENCIADA MARY FRECIA RODRIGUEZ ALVARADO,GUAYAS,SAN JACINTO DE YAGUACHI,-2.09784750041,-79.6921028508,8754.780000000002,4584,0.0
09H04987,ESCUELA DE EDUCACION BASICA AGUSTIN ALBERTO FREIRE ICAZA,GUAYAS,SIMON BOLIVAR,-2.06415304904,-79.4309711263,11673.040000000003,6112,0.0
09H04995,ESCUELA DE EDUCACION BASICA RAFAEL  ENRIQUE SOTO MAGALLANES,GUAYAS,SIMON BOLIVAR,-2.06422083651,-79.3466455025,5836.520000000001,3056,5748.0
09H05008,ESCUELA DE EDUCACION BASICA GENERAL PEDRO J MONTERO,GUAYAS,SAN JACINTO DE YAGUACHI,-2.25538397818,-79.6268977624,5836.520000000001,3056,0.0
09H05019,ESCUELA DE EDUCACION BASICA CARLOS ALBERTO FLORES,GUAYAS,SAN JACINTO DE YAGUACHI,-2.14468704324,-79.6879278076,5836.520000000001,3056,5748.0
09H05023,UNIDAD EDUCATIVA 19 DE AGOSTO,GUAYAS,SAN JACINTO DE YAGUACHI,-2.16822247079,-79.6480069038,5836.520000000001,3056,0.0
09H05028,ESCUELA DE EDUCACION BASICA MEDARDO ANGEL SILVA,GUAYAS,SAN JACINTO DE YAGUACHI,-2.1868857441,-79.682991471,5836.520000000001,3056,0.0
09H05031,ESCUELA DE EDUCACION BASICA MANUEL SOTOMAYOR LUNA,GUAYAS,SAN JACINTO DE YAGUACHI,-2.24912749238,-79.6389965974,11673.040000000003,6112,0.0
09H05033,UNIDAD EDUCATIVA ELOY ALFARO,GUAYAS,SAN JACINTO DE YAGUACHI,-2.24770519446,-79.6462177589,5836.520000000001,3056,0.0
09H05034,ESCUELA DE EDUCACION BASICA ERNESTO JOUVIN CISNEROS,GUAYAS,SAN JACINTO DE YAGUACHI,-2.25605380446,-79.6274545812,5836.520000000001,3056,0.0
09H05042,ESCUELA DE EDUCACIÓN BÁSICA VICTOR LAZO ALARCÓN,GUAYAS,SAN JACINTO DE YAGUACHI,-2.24673816508,-79.6567652276,5836.520000000001,3056,0.0
09H05045,UNIDAD EDUCATIVA FRANCISCO JOSE POLIT ORTIZ,GUAYAS,SAN JACINTO DE YAGUACHI,-2.24856553758,-79.6377293763,5836.520000000001,3056,5748.0
09H05058,ESCUELA DE EDUCACION BASICA ENRIQUE CAMILO,GUAYAS,PLAYAS,-2.62870729562,-80.3852328743,5836.520000000001,3056,5748.0
09H05098,UNIDAD EDUCATIVA CARLOS MATAMOROS JARA,GUAYAS,PLAYAS,-2.57469950065,-80.4880306852,5836.520000000001,3056,5748.0
09H05116,UNIDAD EDUCATIVA  ALFONSO REYES FALCON,GUAYAS,SIMON BOLIVAR,-2.00101925079,-79.48940622,5836.520000000001,3056,5748.0
09H05118,UNIDAD EDUCATIVA DOCTOR ANTONIO PARRA VELASCO,GUAYAS,SIMON BOLIVAR,-2.00455588647,-79.4898524342,14591.300000000003,7640,5748.0
09H05150,ESCUELA DE EDUCACION BASICA HEROES DEL CENEPA,GUAYAS,NOBOL,-1.91341121533,-80.0097366218,5836.520000000001,3056,0.0
09H05160,ESCUELA DE EDUCACIÓN BÁSICA 6 DE AGOSTO,GUAYAS,NOBOL,-1.97809480422,-80.0042595094,2918.2600000000007,1528,5748.0
09H05161,ESCUELA DE EDUCACION BASICA RAQUEL NARANJO GALAN,GUAYAS,NOBOL,-1.96885496239,-80.0126173367,8754.780000000002,4584,5748.0
09H05164,ESCUELA DE EDUCACIÓN BÁSICA CORINA PARRAL DE VELASCO IBARRA,GUAYAS,NOBOL,-1.91481359401,-80.0102033172,23346.080000000005,12224,0.0
09H05168,ESCUELA DE EDUCACION BASICA INDEPENDENCIA DEL ECUADOR,GUAYAS,NOBOL,-1.87989422055,-80.0381828294,5836.520000000001,3056,5748.0
09H05169,ESCUELA DE EDUCACION BASICA ADRIANA FUENTES,GUAYAS,NOBOL,-1.91791784167,-80.0128177431,11673.040000000003,6112,5748.0
09H05205,ESCUELA DE EDUCACION BASICA JACINTO FRANCISCO GONZALEZ HUACON,GUAYAS,ISIDRO AYORA,-1.9452941578,-80.1515469467,5836.520000000001,3056,0.0
09H05206,ESCUELA DE EDUCACION BASICA MARISCAL SUCRE,GUAYAS,ISIDRO AYORA,-1.88011154163,-80.142129895,17509.560000000005,9168,5748.0
09H05376,ESCUELA DE EDUCACION BASICA LCDA BLANCA NORIS ROSERO BERMEO,GUAYAS,MILAGRO,-2.1153563496,-79.5677260917,2918.2600000000007,1528,5748.0
09H05452,ESCUELA DE EDUCACION BASICA FISCAL 27 DE DICIEMBRE,GUAYAS,DURAN,-2.14830187269,-79.8254952709,5836.520000000001,3056,5748.0
09H05461,UNIDAD EDUCATIVA  FISCAL TRANSITO AMAGUAÑA,GUAYAS,GUAYAQUIL,-2.10747222444,-79.9734444463,17509.560000000005,9168,0.0
09H05478,ESCUELA DE EDUCACION BASICA FISCAL FERNANDO DAQUILEMA,GUAYAS,DURAN,-2.15243472543,-79.8152324143,5836.520000000001,3056,5748.0
09H05494,ESCUELA DE EDUCACION BASICA JOSE MARIA URBINA VITERI,GUAYAS,NARANJAL,-2.74105725189,-79.6992757117,5836.520000000001,3056,5748.0
09H05500,UNIDAD EDUCATIVA  DEL MILENIO DR ALFREDO RAUL VERA VERA,GUAYAS,GUAYAQUIL,-2.06716258261,-79.9096830531,20427.820000000003,10696,0.0
09H05605,UNIDAD EDUCATIVA FISCAL RIO MARAÑON,GUAYAS,GUAYAQUIL,-2.11447163945,-79.9754714213,11673.040000000003,6112,5748.0
09H05623,UNIDAD EDUCATIVA FISCAL VICTOR NARANJO FIALLO,GUAYAS,GUAYAQUIL,-2.51448846325,-79.8824619771,5836.520000000001,3056,0.0
09H05660,ESCUELA DE EDUCACION BASICA DIOS CON NOSOTROS,GUAYAS,DAULE,-1.95152942853,-79.9359377933,5836.520000000001,3056,5748.0
09H05712,UNIDAD EDUCATIVA  FISCAL JULIO ESTRADA ICAZA,GUAYAS,GUAYAQUIL,-2.12541330514,-79.9930231368,11673.040000000003,6112,0.0
09H05713,UNIDAD EDUCATIVA FISCAL AMERICA,GUAYAS,GUAYAQUIL,-2.12378363044,-80.0163678897,14591.300000000003,7640,5748.0
09H05745,UNIDAD EDUCATIVA  FISCAL ALEJANDRO JATIVA MARTINEZ,GUAYAS,GUAYAQUIL,-2.13109747766,-79.9610380791,23346.080000000005,12224,5748.0
09H05788,ESCUELA DE EDUCACION BASICA FISCAL VIOLETA MIRELLA ABAD FRANCO,GUAYAS,GUAYAQUIL,-2.15656800245,-79.917452998,5836.520000000001,3056,0.0
09H05803,ESCUELA DE EDUCACION BASICA FISCAL DOCE DE JULIO,GUAYAS,GUAYAQUIL,-2.58814261982,-79.9195539749,5836.520000000001,3056,0.0
09H05808,ESCUELA DE EDUCACION  BASICA FISCAL EDUARDO KINGMAN,GUAYAS,GUAYAQUIL,-2.11671517761,-80.0026707551,11673.040000000003,6112,5748.0
09H05885,UNIDAD EDUCATIVA FISCAL FABRIZIO BUCCO BOZZOLO,GUAYAS,DURAN,-2.1454809524,-79.8295246367,2918.2600000000007,1528,0.0
09H05941,ESCUELA DE EDUCACION BASICA ADOLFO ALVAREZ ESCOBAR,GUAYAS,MILAGRO,-2.12322268013,-79.5848180187,5836.520000000001,3056,5748.0
09H05979,ESCUELA DE EDUCACION BASICA MANUEL GENARO ANCHUNDIA,GUAYAS,EL EMPALME,-0.605407002143,-79.5589581913,5836.520000000001,3056,5748.0
09H05983,UNIDAD EDUCATIVA  FISCAL BERNARDITA CORREA DELGADO,GUAYAS,GUAYAQUIL,-2.09519447832,-79.987277795,11673.040000000003,6112,5748.0
09H06048,UNIDAD EDUCATIVA FISCAL  JUAN JAVIER ESPINOZA,GUAYAS,GUAYAQUIL,-2.11486108279,-79.9831666349,11673.040000000003,6112,5748.0
09H06049,ESCUELA DE EDUCACION BASICA FISCAL AGUSTIN GUERRERO LIZARZABURU,GUAYAS,GUAYAQUIL,-2.11488888412,-79.9883055715,11673.040000000003,6112,0.0
09H06050,ESCUELA DE EDUCACION BASICA FISCAL JOSE MARIA URBINA,GUAYAS,GUAYAQUIL,-2.10916639746,-79.9958827315,11673.040000000003,6112,0.0
09H06079,UNIDAD EDUCATIVA FISCAL  EMILIO ESTRADA CARMONA,GUAYAS,GUAYAQUIL,-2.1309722175,-80.0116388854,11673.040000000003,6112,5748.0
09H06118,UNIDAD EDUCATIVA FISCAL FISCAL JOSE MARTI,GUAYAS,GUAYAQUIL,-2.12315263004,-80.0070010857,2918.2600000000007,1528,0.0
09H06150,ESCUELA DE EDUCACION BASICA DOLORES VEINTIMILLA DE GALINDO,GUAYAS,DURAN,-2.15174897351,-79.8262427671,5836.520000000001,3056,0.0
09H06173,UNIDAD EDUCATIVA FISCAL REPLICA AGUIRRE ABAD,GUAYAS,GUAYAQUIL,-2.15405029189,-79.9299763833,5836.520000000001,3056,5748.0
09H06718,UNIDAD EDUCATIVA FISCAL JOSÉ JOAQUÍN DE OLMEDO,GUAYAS,GUAYAQUIL,-2.09990048945,-79.8934092374,23346.080000000005,12224,5748.0
10H00050,UNIDAD EDUCATIVA ANA LUISA LEORO,IMBABURA,IBARRA,0.353996288803,-78.1247646312,11673.040000000003,6112,0.0
10H00106,UNIDAD EDUCATIVA VICTOR MANUEL PEÑAHERRERA,IMBABURA,IBARRA,0.338210974869,-78.110721943,5836.520000000001,3056,0.0
10H00131,UNIDAD EDUCATIVA VICTOR MANUEL GUZMAN,IMBABURA,IBARRA,0.332117611118,-78.1112443032,14591.300000000003,7640,5748.0
10H00139,UNIDAD EDUCATIVA LUIS LEORO FRANCO,IMBABURA,IBARRA,0.339467328285,-78.1234397895,20427.820000000003,10696,5748.0
10H00159,UNIDAD EDUCATIVA VALLE DEL CHOTA,IMBABURA,IBARRA,0.473722421762,-78.060932397,11673.040000000003,6112,0.0
10H00163,UNIDAD EDUCATIVA CESAR BORJA,IMBABURA,IBARRA,0.42791663136,-78.009611098,5836.520000000001,3056,0.0
10H00177,UNIDAD EDUCATIVA ZULETA,IMBABURA,IBARRA,0.208026419901,-78.0928564364,5836.520000000001,3056,5748.0
10H00198,UNIDAD EDUCATIVA MARIANO ACOSTA,IMBABURA,IBARRA,0.295389221731,-78.1184436787,5836.520000000001,3056,0.0
10H00225,UNIDAD EDUCATIVA JOSE MIGUEL LEORO VASQUEZ,IMBABURA,IBARRA,0.329916671582,-78.1742499967,11673.040000000003,6112,0.0
10H00226,UNIDAD EDUCATIVA VICTOR MIDEROS ALMEIDA,IMBABURA,IBARRA,0.334195095065,-78.1703572417,17509.560000000005,9168,5748.0
10H00229,UNIDAD EDUCATIVA DANIEL REYES,IMBABURA,IBARRA,0.336417985781,-78.1703027477,14591.300000000003,7640,0.0
10H00249,UNIDAD EDUCATIVA ABELARDO MONCAYO,IMBABURA,ANTONIO ANTE,0.339482759588,-78.2062687435,14591.300000000003,7640,5748.0
10H00252,ESCUELA DE EDUCACION BASICA 2 DE MARZO,IMBABURA,ANTONIO ANTE,0.317476146355,-78.2307248419,14591.300000000003,7640,5748.0
10H00262,UNIDAD EDUCATIVA IMBAYA,IMBABURA,ANTONIO ANTE,0.366737008983,-78.1500262112,5836.520000000001,3056,0.0
10H00268,ESCUELA DE EDUCACION BASICA CARLOS MONTUFAR,IMBABURA,ANTONIO ANTE,0.325536410333,-78.1953577326,5836.520000000001,3056,0.0
10H00273,UNIDAD EDUCATIVA CHALTURA,IMBABURA,ANTONIO ANTE,0.352879630181,-78.1922979918,8754.780000000002,4584,5748.0
10H00285,MANUELA CAÑIZARES,IMBABURA,COTACACHI,0.295734789966,-78.2675620269,8754.780000000002,4584,5748.0
10H00287,6 DE JULIO,IMBABURA,COTACACHI,0.300411026144,-78.2631533789,11673.040000000003,6112,5748.0
10H00291,MODESTO AURELIO PEÑAHERRERA,IMBABURA,COTACACHI,0.297200933078,-78.2671487446,11673.040000000003,6112,0.0
10H00325,SANTA ANA DE COTACACHI,IMBABURA,COTACACHI,0.326221230127,-79.2086580345,11673.040000000003,6112,5748.0
10H00336,ISLA SANTA ISABEL,IMBABURA,COTACACHI,0.236939700286,-78.7477859881,5836.520000000001,3056,5748.0
10H00344,RAFAEL LEON CARVAJAL,IMBABURA,COTACACHI,0.22266664532,-78.8998415523,5836.520000000001,3056,5748.0
10H00369,UNIDAD EDUCATIVA CUELLAJE,IMBABURA,COTACACHI,0.430027816549,-78.5275327115,5836.520000000001,3056,5748.0
10H00381,ANDRES AVELINO DE LA TORRE,IMBABURA,COTACACHI,0.282029014358,-78.2830320326,5836.520000000001,3056,0.0
10H00410,UNIDAD EDUCATIVA  JACINTO COLLAHUAZO,IMBABURA,OTAVALO,0.227919781966,-78.2606378793,11673.040000000003,6112,0.0
10H00433,UNIDAD EDUCATIVA DE MILENIO JATUN KURAKA OTAVALO,IMBABURA,OTAVALO,0.234346881497,-78.2700978986,8754.780000000002,4584,0.0
10H00443,UNIDAD EDUCATIVA ISAAC JESUS BARRERA,IMBABURA,OTAVALO,0.221857594385,-78.2647257375,8754.780000000002,4584,0.0
10H00456,UNIDAD EDUCATIVA ULPIANO NAVARRO,IMBABURA,OTAVALO,0.232260300526,-78.28762928,5836.520000000001,3056,5748.0
10H00462,UNIDAD EDUCATIVA ALFREDO PEREZ GUERRERO,IMBABURA,OTAVALO,0.195122817654,-78.1939414383,17509.560000000005,9168,0.0
10H00469,UNIDAD EDUCATIVA JUAN MONTALVO,IMBABURA,OTAVALO,0.177973370965,-78.2045627456,8754.780000000002,4584,5748.0
10H00621,UNIDAD EDUCATIVA DEL MILENIO SUMAK YACHANA WASI,IMBABURA,COTACACHI,0.347836207075,-78.2494244847,5836.520000000001,3056,0.0
11H00001,UNIDAD EDUCATIVA MIGUEL RIOFRIO,LOJA,LOJA,-4.00101730714,-79.2003008976,17509.560000000005,9168,0.0
11H00020,ESCUELA DE EDUCACION BASICA 18 DE NOVIEMBRE,LOJA,LOJA,-4.0008751376,-79.1985254153,20427.820000000003,10696,5748.0
11H00036,CENTRO DE EDUCACION INICIAL JOSE MIGUEL GARCIA MORENO,LOJA,LOJA,-3.99109512952,-79.2027652334,23346.080000000005,12224,0.0
11H00049,ESCUELA DE EDUCACION BASICA CIUDAD DE LOJA,LOJA,LOJA,-3.99040409872,-79.2031740781,14591.300000000003,7640,0.0
11H00078,ESCUELA DE EDUCACION BASICA ALONSO DE MERCADILLO,LOJA,LOJA,-4.00791630997,-79.2052672248,14591.300000000003,7640,0.0
11H00105,UNIDAD EDUCATIVA DEL MILENIO BERNARDO VALDIVIESO,LOJA,LOJA,-4.01096355937,-79.1990906881,23346.080000000005,12224,5748.0
11H00147,UNIDAD EDUCATIVA DR MANUEL AGUSTIN CABRERA LOZANO,LOJA,LOJA,-4.01401694648,-79.2058695337,8754.780000000002,4584,5748.0
11H00154,ESCUELA DE EDUCACION BASICA VICENTE BASTIDAS REINOSO,LOJA,LOJA,-3.97986131615,-79.2134077881,8754.780000000002,4584,0.0
11H00223,ESCUELA DE EDUCACION BASICA JOSE INGENIEROS,LOJA,LOJA,-3.96953945766,-79.2073560241,8754.780000000002,4584,0.0
11H00235,ESCUELA DE EDUCACION BASICA ROSA JOSEFINA BURNEO DE BURNEO,LOJA,LOJA,-3.97246266974,-79.2076304553,8754.780000000002,4584,0.0
11H00275,ESCUELA DE EDUCACION BASICA POMPILIO REINOSO JARAMILLO,LOJA,LOJA,-3.93809511711,-79.2236933084,5836.520000000001,3056,0.0
11H00282,UNIDAD EDUCATIVA JULIO MARIA MATOVELLE,LOJA,LOJA,-3.95832752933,-79.2192747302,8754.780000000002,4584,0.0
11H00283,UNIDAD EDUCATIVA  MARIETA DE VEINTIMILLA,LOJA,LOJA,-3.94444479981,-79.225426716,8754.780000000002,4584,0.0
11H00441,UNIDAD EDUCATIVA JUAN MONTALVO,LOJA,LOJA,-4.26233901217,-79.2237445413,5836.520000000001,3056,0.0
11H00446,ESCUELA DE EDUCACION BASICA TRECE DE ABRIL,LOJA,LOJA,-4.261403186,-79.2221733155,2918.2600000000007,1528,0.0
11H00585,ESCUELA DE EDUCACION BASICA CARLOS MONTUFAR,LOJA,CALVAS,-4.40055296826,-79.468953552,5836.520000000001,3056,5748.0
11H00797,UNIDAD EDUCATIVA MANUEL MARIA SANCHEZ,LOJA,CELICA,-4.20166671083,-80.1286111291,5836.520000000001,3056,0.0
11H00914,ESCUELA DE EDUCACION BASICA NICOLAS MAQUIAVELO,LOJA,ESPINDOLA,-4.41729904293,-79.4110164734,5836.520000000001,3056,0.0
11H01052,UNIDAD EDUCATIVA DEL MILENIO  5 DE JUNIO,LOJA,MACARA,-4.38577721119,-79.9523611737,5836.520000000001,3056,0.0
11H01459,ESCUELA DE EDUCACION BASICA FRANCISCO ARIAS,LOJA,SARAGURO,-3.55177439617,-79.3459029459,5836.520000000001,3056,0.0
15H00032,CEI EL BUEN PASTOR,NAPO,TENA,-0.988271858934,-77.817098914,5836.520000000001,3056,5748.0
15H00047,UNIDAD EDUCATIVA JOSE PELAEZ,NAPO,TENA,-0.990531773387,-77.8154050461,20427.820000000003,10696,5748.0
15H00056,UNIDAD EDUCATIVA DR JAIME HURTADO GONZALEZ,NAPO,TENA,-0.992211006695,-77.4384545696,5836.520000000001,3056,0.0
15H00073,UNIDAD EDUCATIVA AHUANO,NAPO,TENA,-1.05024999717,-77.5829444446,5836.520000000001,3056,0.0
15H00125,UNIDAD EDUCATIVA MISAHUALLI,NAPO,TENA,-1.03439026463,-77.6667808789,8754.780000000002,4584,0.0
15H00157,UNIDAD EDUCATIVA ARCHIDONA,NAPO,ARCHIDONA,-0.90943845116,-77.8079205794,23346.080000000005,12224,5748.0
15H00213,PADRE RAFAEL FERRER,NAPO,EL CHACO,-0.213175742721,-78.0877934995,5836.520000000001,3056,5748.0
15H00228,MANUEL VILLAVICENCIO,NAPO,QUIJOS,-0.41371513954,-78.0271026117,5836.520000000001,3056,5748.0
15H00235,GUILLERMO VINUEZA,NAPO,QUIJOS,-0.424218321966,-77.8417894988,5836.520000000001,3056,5748.0
16H00137,UNIDAD EDUCATIVA VERACRUZ,PASTAZA,PASTAZA,-1.50845439825,-77.9419399029,5836.520000000001,3056,5748.0
17H00605,ESCUELA DE EDUCACION BASICA REPUBLICA DE IRAK,PICHINCHA,QUITO,-0.241177386711,-78.5451779467,5836.520000000001,3056,0.0
17H00671,ESCUELA DE EDUCACIÓN BÁSICA ELOY ALFARO,PICHINCHA,QUITO,-0.218707820432,-78.5027959987,5836.520000000001,3056,0.0
17H01058,ESCUELA DE EDUCACIÓN BÁSICA FISCAL VALENCIA HERRERA,PICHINCHA,QUITO,-0.334966279562,-78.5480130627,14591.300000000003,7640,5748.0
17H01234,UNIDAD EDUCATIVA LUIS ENRIQUE RAZA BOLAÑOS,PICHINCHA,QUITO,-0.299356509891,-78.5247760914,14591.300000000003,7640,5748.0
17H01289,ESCUELA DE EDUCACIÓN BÁSICA FISCAL CARLOS GUERRA BOADA,PICHINCHA,QUITO,-0.343566431312,-78.5638852001,8754.780000000002,4584,5748.0
17H01294,ESCUELA DE EDUCACIÓN BÁSICA CENEPA,PICHINCHA,QUITO,-0.341127498976,-78.5702427715,5836.520000000001,3056,0.0
17H01447,ESCUELA DE EDUCACION BASICA FISCAL RAFAEL ARMIJOS VALDIVIESO,PICHINCHA,QUITO,-0.30700084,-78.4380276089,5836.520000000001,3056,5748.0
17H01457,UNIDAD EDUCATIVA ALEJANDRO ANDRADE COELLO,PICHINCHA,QUITO,-0.283692280087,-78.4424141299,5836.520000000001,3056,0.0
17H01495,ESCUELA DE EDUCACIÓN BÁSICA BARTOLOMÉ DE LAS CASAS,PICHINCHA,QUITO,-0.372767466665,-78.4851091659,5836.520000000001,3056,5748.0
17H01726,ESCUELA DE EDUCACIÓN BÁSICA DRA  MATILDE HIDALGO DE PRÓCEL,PICHINCHA,QUITO,-0.271818222679,-78.4955935088,8754.780000000002,4584,5748.0
17H01775,ESCUELA DE EDUCACIÓN BÁSICA RICARDO ORTIZ TERAN,PICHINCHA,QUITO,-0.0968355010087,-78.2896476658,5836.520000000001,3056,5748.0
17H01863,ESCUELA DE EDUCACIÓN BÁSICA FISCAL DR ALFONSO MORA BOWEN,PICHINCHA,QUITO,-0.171184183101,-78.4417336794,5836.520000000001,3056,5748.0
17H01992,ESCUELA DE EDUCACIÓN BÁSICA FISCAL MARIA HELENA SALAZAR DE PEREZ,PICHINCHA,QUITO,-0.0646424037356,-78.4603454154,5836.520000000001,3056,5748.0
17H01994,SIMON RODRIGUEZ,PICHINCHA,QUITO,-0.0670111541544,-78.4737493213,5836.520000000001,3056,5748.0
17H02004,LUIS NAPOLEON DILLON,PICHINCHA,QUITO,0.0675423773553,-78.401196232,5836.520000000001,3056,5748.0
17H02058,ESCUELA DE EDUCACION BASICA FISCAL ALEJANDRO LARREA,PICHINCHA,QUITO,0.174379172346,-78.408740369,5836.520000000001,3056,0.0
17H02132,ESCUELA DE EDUCACIÓN BÁSICA LUIS PALLARES ZALDUMBIDE,PICHINCHA,QUITO,-0.149474621301,-78.3376406756,2918.2600000000007,1528,0.0
17H02700,CENTRO DE EDUCACIÓN INICIAL BUEN PASTOR,PICHINCHA,QUITO,-0.199646145726,-78.388205171,5836.520000000001,3056,5748.0
17H02831,CENTRO DE EDUCACIÓN INICIAL FISCAL MIS PRIMERAS LETRAS,PICHINCHA,QUITO,-0.197748494874,-78.3470734876,5836.520000000001,3056,0.0
19H00010,ESCUELA DE EDUCACION BASICA AMAZONAS,ZAMORA CHINCHIPE,ZAMORA,-4.06633797026,-78.9537098534,14591.300000000003,7640,0.0
19H00040,ESCUELA DE EDUCACION BASICA  PRINCESA PACCHA,ZAMORA CHINCHIPE,ZAMORA,-3.95867583779,-78.849802368,5836.520000000001,3056,5748.0
19H00060,ESCUELA DE EDUCACION BASICA MEDARDO ANGEL SILVA,ZAMORA CHINCHIPE,ZAMORA,-3.87589040833,-78.875001165,5836.520000000001,3056,5748.0
19H00118,ESCUELA DE EDUCACIÓN BÁSICA CIUDAD DE ZUMBA,ZAMORA CHINCHIPE,CHINCHIPE,-4.8735155443,-79.135050309,5836.520000000001,3056,5748.0
19H00273,ESCUELA DE EDUCACION BASICA MARIA PAULINA SOLIS,ZAMORA CHINCHIPE,YANTZAZA (YANZATZA),-3.82771691827,-78.7627345791,14591.300000000003,7640,0.0
19H00423,UNIDAD EDUCATIVA EL PORVENIR,ZAMORA CHINCHIPE,PALANDA,-4.5463780336,-79.035873816,5836.520000000001,3056,5748.0
19H00586,UNIDAD EDUCATIVA DEL MILENIO 10 DE NOVIEMBRE,ZAMORA CHINCHIPE,YANTZAZA (YANZATZA),-3.76262184512,-78.6439018962,14591.300000000003,7640,5748.0
19H00618,UNIDAD EDUCATIVA DEL MILENIO GUAYZIMI,ZAMORA CHINCHIPE,NANGARITZA,-4.04950618012,-78.6831943853,5836.520000000001,3056,5748.0
21H00084,UNIDAD EDUCATIVA SANTOS AVELINO SANCHEZ,SUCUMBIOS,LAGO AGRIO,0.0767119622974,-76.9177053997,5836.520000000001,3056,5748.0
21H00105,UNIDAD EDUCATIVA REPUBLICA DE CANADA,SUCUMBIOS,LAGO AGRIO,0.0913834300847,-76.8926458732,11673.040000000003,6112,0.0
21H00128,UNIDAD EDUCATIVA LAGO AGRIO,SUCUMBIOS,LAGO AGRIO,0.0855537850598,-76.8825120746,8754.780000000002,4584,5748.0
21H00129,UNIDAD EDUCATIVA LEOPOLDO LUCERO,SUCUMBIOS,LAGO AGRIO,0.0869609308001,-76.8798130731,11673.040000000003,6112,5748.0
21H00132,UNIDAD EDUCATIVA CONSEJO PROVINCIAL DE NAPO,SUCUMBIOS,LAGO AGRIO,0.08601884071,-76.8938516118,17509.560000000005,9168,5748.0
21H00138,UNIDAD EDUCATIVA EJERCITO ECUATORIANO,SUCUMBIOS,LAGO AGRIO,0.0794621737588,-76.8860839004,8754.780000000002,4584,5748.0
21H00142,UNIDAD EDUCATIVA NAPO,SUCUMBIOS,LAGO AGRIO,0.0857173398073,-76.8979220849,17509.560000000005,9168,0.0
21H00223,VASCO NUÑEZ DE BALBOA,SUCUMBIOS,LAGO AGRIO,0.189939002891,-76.8103667978,5836.520000000001,3056,0.0
21H00226,UNIDAD EDUCATIVA DEL MILENIO RAFAEL RODRIGUEZ PALACIOS,SUCUMBIOS,LAGO AGRIO,0.231690333783,-76.8476136824,5836.520000000001,3056,5748.0
21H00306,UNIDAD EDUCATIVA TIWINTZA,SUCUMBIOS,LAGO AGRIO,-0.0417988005442,-76.5844509359,5836.520000000001,3056,5748.0
21H00308,CARLOS AZUERO AÑAZCO,SUCUMBIOS,LAGO AGRIO,0.246983364534,-76.5576507269,5836.520000000001,3056,5748.0
21H00321,UNIDAD EDUCATIVA PACAYACU,SUCUMBIOS,LAGO AGRIO,-0.0405187693967,-76.5892219605,8754.780000000002,4584,5748.0
21H00332,UNIDAD EDUCATIVA JAMBELI,SUCUMBIOS,LAGO AGRIO,0.0875112100318,-77.0743434047,5836.520000000001,3056,0.0
21H00343,UNIDAD EDUCATIVA DOCTORA IRENE GUERRON,SUCUMBIOS,LAGO AGRIO,0.0916328553245,-76.9508513453,5836.520000000001,3056,0.0
21H00358,UNIDAD EDUCATIVA ISLA SAN CRISTOBAL,SUCUMBIOS,LAGO AGRIO,0.119113581984,-77.0121298098,5836.520000000001,3056,5748.0
21H00362,EL REVENTADOR,SUCUMBIOS,GONZALO PIZARRO,-0.0500277728369,-77.5256111116,5836.520000000001,3056,5748.0
21H00383,UNIDAD EDUCATIVA DEL MILENIO LUMBAQUI,SUCUMBIOS,GONZALO PIZARRO,0.0488806810209,-77.3236809783,11673.040000000003,6112,5748.0
21H00494,ESCUELA DE EDUCACIÓN GENERAL BÁSICA ANGEL ALMEIDA,SUCUMBIOS,SHUSHUFINDI,-0.199685115812,-76.6297937121,2918.2600000000007,1528,0.0
21H00502,UNIDAD EDUCATIVA SHUSHUFINDI,SUCUMBIOS,SHUSHUFINDI,-0.181240875493,-76.6436155663,5836.520000000001,3056,5748.0
21H00521,UNIDAD EDUCATIVA SAN JUAN BAUTISTA DE LA SALLE,SUCUMBIOS,SHUSHUFINDI,-0.191101893299,-76.6477888201,5836.520000000001,3056,5748.0
21H00535,UNIDAD EDUCATIVA FRANCISCO JAVIER PEÑARRETA,SUCUMBIOS,SHUSHUFINDI,-0.184706285535,-76.6407815005,8754.780000000002,4584,0.0
21H00578,UNIDAD EDUCATIVA DEL MILENIO PEDRO VICENTE MALDONADO,SUCUMBIOS,SHUSHUFINDI,-0.451159348802,-76.0712027935,5836.520000000001,3056,5748.0
21H00586,UNIDAD EDUCATIVA HNA INES ARANGO VELASQUEZ,SUCUMBIOS,SHUSHUFINDI,-0.322198265312,-76.4890298585,5836.520000000001,3056,0.0
21H00587,UNIDAD EDUCATIVA RIO YASUNI,SUCUMBIOS,SHUSHUFINDI,-0.296287816269,-76.3625262922,5836.520000000001,3056,5748.0
21H00594,UNIDAD EDUCATIVA JUAN MONTALVO,SUCUMBIOS,SHUSHUFINDI,-0.303588022036,-76.5399749655,5836.520000000001,3056,5748.0
21H00621,UNIDAD EDUCATIVA CIUDAD DE PORTOVIEJO,SUCUMBIOS,SHUSHUFINDI,-0.184361122437,-76.7847221987,5836.520000000001,3056,0.0
22H00054,UNIDAD EDUCATIVA DAVID CLARK,ORELLANA,ORELLANA,-0.502464012191,-76.9551062916,5836.520000000001,3056,5748.0
22H00056,24 DE MARZO,ORELLANA,ORELLANA,-0.445223250423,-76.9941389018,2918.2600000000007,1528,5748.0
22H00064,UNIDAD EDUCATIVA PRESIDENTE TAMAYO,ORELLANA,ORELLANA,-0.472584016183,-76.9851666908,17509.560000000005,9168,5748.0
22H00068,ENRIQUE CASTILLO,ORELLANA,ORELLANA,-0.446110719066,-77.0001583226,5836.520000000001,3056,5748.0
22H00109,UNIDAD EDUCATIVA ARTURO BORJA,ORELLANA,ORELLANA,-0.451762384001,-77.0286277174,5836.520000000001,3056,5748.0
22H00145,UNIDAD EDUCATIVA CIUDAD DE COCA,ORELLANA,ORELLANA,-0.454478518075,-76.9897644877,8754.780000000002,4584,5748.0
22H00147,UNIDAD EDUCATIVA VICTOR SERGIO RON VEGA,ORELLANA,ORELLANA,-0.469328308248,-76.9916909122,5836.520000000001,3056,5748.0
22H00150,AMAZONAS,ORELLANA,ORELLANA,-0.465999916363,-76.9928138217,23346.080000000005,12224,5748.0
22H00152,UNIDAD EDUCATIVA TIGUINO,ORELLANA,ORELLANA,-1.09332816937,-76.9336726882,5836.520000000001,3056,5748.0
22H00175,ESCUELA DE EDUCACION BASICA  RIO MATAJE,ORELLANA,ORELLANA,-0.622444436454,-76.8900277856,5836.520000000001,3056,0.0
22H00185,UNIDAD EDUCATIVA FLOR DEL ORIENTE,ORELLANA,ORELLANA,-0.911690981985,-76.9137712459,5836.520000000001,3056,5748.0
22H00325,LAGO SAN PEDRO,ORELLANA,LA JOYA DE LOS SACHAS,-0.241947676966,-76.943715548,5836.520000000001,3056,5748.0
22H00329,CIUDAD DE BELEN,ORELLANA,LA JOYA DE LOS SACHAS,-0.159058101075,-76.9503061692,5836.520000000001,3056,0.0
22H00411,CERVANTES ECUATORIANO,ORELLANA,LORETO,-0.698555435154,-77.3136902668,5836.520000000001,3056,5748.0
22H00461,UNIDAD EDUCATIVA JAIME ROLDOS AGUILERA,ORELLANA,ORELLANA,-0.656301508712,-77.045007715,5836.520000000001,3056,0.0
22H00530,UNIDAD EDUCATIVA YASUNI,ORELLANA,ORELLANA,-0.699208640796,-76.7127509928,5836.520000000001,3056,0.0
22H00535,UNIDAD EDUCATIVA TIPUTINI,ORELLANA,AGUARICO,-0.788841909165,-75.5274374262,8754.780000000002,4584,5748.0
23H00016,UNIDAD EDUCATIVA RUBEN DARIO,SANTO DOMINGO DE LOS TSACHILAS,SANTO DOMINGO,-0.25626031816,-79.1977083227,11673.040000000003,6112,0.0
23H00091,UNIDAD EDUCATIVA SANTO DOMINGO DE LOS COLORADOS,SANTO DOMINGO DE LOS TSACHILAS,SANTO DOMINGO,-0.256126273199,-79.1866705084,23346.080000000005,12224,5748.0
23H00135,UNIDAD EDUCATIVA RAMÓN MONCAYO BENÍTEZ,SANTO DOMINGO DE LOS TSACHILAS,SANTO DOMINGO,-0.224848576276,-79.1910408235,11673.040000000003,6112,0.0
23H00137,UNIDAD EDUCATIVA GONZALO BENITEZ GOMEZ,SANTO DOMINGO DE LOS TSACHILAS,SANTO DOMINGO,-0.227498938479,-79.1976245399,8754.780000000002,4584,5748.0
23H00284,UNIDAD EDUCATIVA LAS DELICIAS,SANTO DOMINGO DE LOS TSACHILAS,SANTO DOMINGO,-0.262072386336,-79.4062812325,14591.300000000003,7640,0.0
23H00288,UNIDAD EDUCATIVA VEINTICUATRO DE MAYO,SANTO DOMINGO DE LOS TSACHILAS,SANTO DOMINGO,-0.250025227278,-79.1750599537,14591.300000000003,7640,0.0
23H00295,UNIDAD EDUCATIVA JULIO MORENO ESPINOSA,SANTO DOMINGO DE LOS TSACHILAS,SANTO DOMINGO,-0.252741831584,-79.1648538883,23346.080000000005,12224,5748.0
23H00301,UNIDAD EDUCATIVA SERGIO NUÑEZ,SANTO DOMINGO DE LOS TSACHILAS,LA CONCORDIA,0.00515502833136,-79.3973402723,14591.300000000003,7640,5748.0
23H00325,UNIDAD EDUCATIVA VASCO NUÑEZ DE BALBOA,SANTO DOMINGO DE LOS TSACHILAS,SANTO DOMINGO,-0.334540608463,-79.3968273869,5836.520000000001,3056,0.0
23H00360,JOSE DE LA CRUZ,SANTO DOMINGO DE LOS TSACHILAS,LA CONCORDIA,-0.0554968830211,-79.44434552,5836.520000000001,3056,5748.0
23H00382,UNIDAD EDUCATIVA PROVINCIA DE PICHINCHA,SANTO DOMINGO DE LOS TSACHILAS,LA CONCORDIA,-0.000963672535567,-79.3922680241,5836.520000000001,3056,5748.0
23H00388,UNIDAD EDUCATIVA PROCER MANUEL QUIROGA,SANTO DOMINGO DE LOS TSACHILAS,SANTO DOMINGO,-0.244282318105,-79.3436375151,11673.040000000003,6112,0.0
23H00407,UNIDAD EDUCATIVA DR CARLOS RUFINO MARIN,SANTO DOMINGO DE LOS TSACHILAS,SANTO DOMINGO,-0.291436324259,-79.2148334598,11673.040000000003,6112,0.0
23H00506,UNIDAD EDUCATIVA VICENTE RAMON ROCA,SANTO DOMINGO DE LOS TSACHILAS,SANTO DOMINGO,-0.354965460462,-79.3368463568,5836.520000000001,3056,0.0
23H00514,UNIDAD EDUCATIVA PUERTO LIMON,SANTO DOMINGO DE LOS TSACHILAS,SANTO DOMINGO,-0.385755968108,-79.3703390251,11673.040000000003,6112,0.0
23H00822,MYR. LUIS ANÍBAL YÉPEZ,SANTO DOMINGO DE LOS TSACHILAS,LA CONCORDIA,-0.0706314299184,-79.3921288377,5836.520000000001,3056,5748.0
23H00824,UNIDAD EDUCATIVA ALESSANDRO VOLTA,SANTO DOMINGO DE LOS TSACHILAS,SANTO DOMINGO,-0.271310579456,-79.1854094213,17509.560000000005,9168,5748.0
23H00829,UNIDAD EDUCATIVA SAN JACINTO DEL BÚA,SANTO DOMINGO DE LOS TSACHILAS,SANTO DOMINGO,-0.149972250771,-79.385222202,14591.300000000003,7640,5748.0
23H00834,UNIDAD EDUCATIVA JOAQUIN GALLEGOS LARA,SANTO DOMINGO DE LOS TSACHILAS,LA CONCORDIA,-0.0399103081337,-79.4953568304,20427.820000000003,10696,5748.0
23H00835,UNIDAD EDUCATIVA LUIS VARGAS TORRES,SANTO DOMINGO DE LOS TSACHILAS,LA CONCORDIA,0.0038206075033,-79.3891549539,23346.080000000005,12224,0.0
23H00836,UNIDAD EDUCATIVA MONS EMILIO LORENZO STEHLE,SANTO DOMINGO DE LOS TSACHILAS,SANTO DOMINGO,-0.258251926087,-79.1484913897,8754.780000000002,4584,5748.0
24H00001,ESCUELA DE EDUCACION BASICA BALLENITA,SANTA ELENA,SANTA ELENA,-2.20727496315,-80.8748932505,5836.520000000001,3056,0.0
24H00005,ESCUELA DE EDUCACION BASICA DIECIOCHO DE AGOSTO,SANTA ELENA,SANTA ELENA,-2.22800561589,-80.862761377,11673.040000000003,6112,5748.0
24H00007,ESCUELA DE EDUCACION BASICA DR CARLOS PUIG VILAZAR,SANTA ELENA,SANTA ELENA,-2.14172581344,-80.7747352351,5836.520000000001,3056,5748.0
24H00009,ESCUELA DE EDUCACION BASICA PROFESOR VIRGILIO TORRES LUZURIAGA,SANTA ELENA,SANTA ELENA,-2.21478604277,-80.3193759865,5836.520000000001,3056,0.0
24H00010,ESCUELA DE EDUCACION BASICA VEINTIUNO DE DICIEMBRE,SANTA ELENA,SANTA ELENA,-2.31818817317,-80.8562677131,5836.520000000001,3056,5748.0
24H00012,UNIDAD EDUCATIVA CARLOS JULIO AROSEMENA TOLA,SANTA ELENA,SANTA ELENA,-2.14128240224,-80.7740428454,8754.780000000002,4584,0.0
24H00019,ESCUELA DE EDUCACION BASICA SAN ANTONIO DE PADUA,SANTA ELENA,SANTA ELENA,-1.87314903709,-80.7354644892,5836.520000000001,3056,5748.0
24H00022,ESCUELA DE EDUCACION BASICA LEONARDO W BERRY,SANTA ELENA,SANTA ELENA,-2.32346546197,-80.8536752709,8754.780000000002,4584,5748.0
24H00023,ESCUELA DE EDUCACION BASICA VEINTICUATRO DE JULIO,SANTA ELENA,SANTA ELENA,-2.22380865436,-80.8600104893,17509.560000000005,9168,0.0
24H00027,UNIDAD EDUCATIVA MARISCAL SUCRE,SANTA ELENA,SANTA ELENA,-2.24793579244,-80.5822083195,5836.520000000001,3056,0.0
24H00031,UNIDAD  EDUCATIVA  PROF CLEOFE APOLINARIO ORRALA,SANTA ELENA,SANTA ELENA,-2.3139069756,-80.7071555969,5836.520000000001,3056,5748.0
24H00036,UNIDAD EDUCATIVA DR OTTO AROSEMENA GÓMEZ,SANTA ELENA,SANTA ELENA,-2.22913116873,-80.8561310092,14591.300000000003,7640,0.0
24H00039,CENTRO DE EDUCACION INICIAL VIRGINIA REYES GONZALEZ,SANTA ELENA,SANTA ELENA,-2.22570256712,-80.8588833402,20427.820000000003,10696,0.0
24H00041,ESCUELA DE EDUCACION BASICA CARMEN EUFEMIA MONTENEGRO DE OBREGON,SANTA ELENA,LA LIBERTAD,-2.23014824386,-80.9020696754,11673.040000000003,6112,0.0
24H00045,ESCUELA DE EDUCACION  BASICA CARMEN CALISTO DE BORJA,SANTA ELENA,SANTA ELENA,-2.21951392922,-80.8548998422,5836.520000000001,3056,0.0
24H00059,ESCUELA DE EDUCACION BASICA QUINCE DE MARZO,SANTA ELENA,SANTA ELENA,-2.31427224628,-80.7748888962,5836.520000000001,3056,5748.0
24H00060,UNIDAD EDUCATIVA JUAN ALBERTO PANCHANA PADRON,SANTA ELENA,SANTA ELENA,-2.31240883175,-80.7766969746,5836.520000000001,3056,0.0
24H00062,ESCUELA DE EDUCACION BASICA RAFAEL MORAN VALVERDE,SANTA ELENA,SANTA ELENA,-2.0427006232,-80.726600519,5836.520000000001,3056,0.0
24H00064,ESCUELA DE EDUCACION BASICA JUAN LEÓN MERA MARTÍNEZ,SANTA ELENA,SANTA ELENA,-1.91323799038,-80.6518424967,5836.520000000001,3056,5748.0
24H00072,UNIDAD EDUCATIVA IGNACIO ALVARADO,SANTA ELENA,SANTA ELENA,-2.02394391689,-80.7325603911,11673.040000000003,6112,0.0
24H00074,ESCUELA DE EDUCACION BASICA LUIS EDUARDO ROSALES SANTOS,SANTA ELENA,SANTA ELENA,-1.98522132366,-80.6766994524,5836.520000000001,3056,5748.0
24H00075,ESCUELA DE EDUCACION BASICA LUCRECIA CISNEROS,SANTA ELENA,SANTA ELENA,-1.96541207474,-80.650860715,5836.520000000001,3056,5748.0
24H00077,UNIDAD EDUCATIVA ANTONIO ISSA YAZBEK,SANTA ELENA,SANTA ELENA,-1.99892523983,-80.5860304952,8754.780000000002,4584,5748.0
24H00084,ESCUELA DE EDUCACION BASICA MIGUEL DE LETAMENDI,SANTA ELENA,SANTA ELENA,-1.94404455121,-80.6166516966,5836.520000000001,3056,5748.0
24H00091,ESCUELA DE EDUCACION BASICA AURELIO CARRERA CALVO,SANTA ELENA,SANTA ELENA,-1.96169465171,-80.6552225175,5836.520000000001,3056,0.0
24H00096,ESCUELA DE EDUCACION BASICA CARLOS JULIO AROSEMENA MONRROY,SANTA ELENA,SANTA ELENA,-2.13356685158,-80.6054742118,5836.520000000001,3056,5748.0
24H00101,UNIDAD EDUCATIVA FRANCISCO PIZARRO,SANTA ELENA,SANTA ELENA,-2.05731895025,-80.73424545,5836.520000000001,3056,0.0
24H00107,ESCUELA DE EDUCACION BASICA PRESIDENTE LIZARDO GARCÍA,SANTA ELENA,SANTA ELENA,-2.02004992683,-80.670691444,5836.520000000001,3056,5748.0
24H00114,ESCUELA DE EDUCACION BASICA JOSE MARTINEZ COBO,SANTA ELENA,SANTA ELENA,-2.40145841076,-80.6812332346,8754.780000000002,4584,5748.0
24H00115,ESCUELA DE EDUCACION BASICA MARGOTH SANTISTEVAN DE SAN LUCAS,SANTA ELENA,SANTA ELENA,-2.35759267109,-80.6569500838,8754.780000000002,4584,0.0
24H00117,UNIDAD EDUCATIVA ELISA AYALA GONZALEZ,SANTA ELENA,SANTA ELENA,-2.30759598902,-80.285877577,5836.520000000001,3056,5748.0
24H00118,ESCUELA DE EDUCACION BASICA ROBERTO ALEJANDRO NARVAEZ,SANTA ELENA,SANTA ELENA,-2.35637642602,-80.7198465995,5836.520000000001,3056,0.0
24H00128,ESCUELA DE EDUCACION BASICA JOSE LUIS TAMAYO,SANTA ELENA,SANTA ELENA,-2.38162609999,-80.7167204844,5836.520000000001,3056,0.0
24H00129,ESCUELA DE EDUCACION BASICA DR CARLOS CAMACHO NAVARRO,SANTA ELENA,SANTA ELENA,-2.3326645501,-80.2699376301,8754.780000000002,4584,0.0
24H00130,UNIDAD EDUCATIVA VICENTE ROCAFUERTE,SANTA ELENA,SANTA ELENA,-2.32154979421,-80.5607154509,5836.520000000001,3056,5748.0
24H00131,UNIDAD EDUCATIVA EUGENIO ESPEJO,SANTA ELENA,SANTA ELENA,-2.46667172481,-80.5631158148,5836.520000000001,3056,5748.0
24H00132,ESCUELA DE EDUCACION BASICA PORTETE DE TARQUI,SANTA ELENA,SANTA ELENA,-2.41738062558,-80.6102447367,5836.520000000001,3056,5748.0
24H00133,ESCUELA DE EDUCACION BASICA ANTONIO JOSE DE SUCRE,SANTA ELENA,SANTA ELENA,-2.36465481627,-80.7144338242,8754.780000000002,4584,0.0
24H00135,ESCUELA DE EDUCACION BASICA CRISTOBAL COLON,SANTA ELENA,SANTA ELENA,-1.93785122095,-80.6874841289,8754.780000000002,4584,0.0
24H00147,ESCUELA DE EDUCACION BASICA JOSE MARIA CHAVEZ MATA,SANTA ELENA,SANTA ELENA,-1.88084826623,-80.7345423365,8754.780000000002,4584,0.0
24H00148,UNIDAD EDUCATIVA CESAREO CARRERA ANDRADE,SANTA ELENA,SANTA ELENA,-1.94036699742,-80.6956854813,8754.780000000002,4584,5748.0
24H00149,ESCUELA DE EDUCACION BASICA FRANCISCO DE MIRANDA,SANTA ELENA,SANTA ELENA,-1.94099329417,-80.7232436628,11673.040000000003,6112,0.0
24H00173,ESCUELA DE EDUCACION BASICA MANUELA  CAÑIZARES,SANTA ELENA,SANTA ELENA,-2.1859754617,-80.3616177246,5836.520000000001,3056,5748.0
24H00176,ESCUELA DE EDUCACION BASICA ADOLFO JURADO GONZALEZ,SANTA ELENA,SANTA ELENA,-2.29126019835,-80.8485791343,5836.520000000001,3056,0.0
24H00177,ESCUELA DE EDUCACION BASICA PRESIDENTE VELASCO IBARRA,SANTA ELENA,SANTA ELENA,-2.2829709901,-80.8587968804,5836.520000000001,3056,0.0
24H00188,ESCUELA DE EDUCACION BASICA MAURICIO HERMENEJILDO DOMINGUEZ,SANTA ELENA,LA LIBERTAD,-2.24531197628,-80.9128969571,14591.300000000003,7640,5748.0
24H00191,ESCUELA DE EDUCACION BASICA IVAN ABAD GUERRA,SANTA ELENA,LA LIBERTAD,-2.23608266711,-80.8946676026,5836.520000000001,3056,0.0
24H00205,ESCUELA DE EDUCACION BASICA FRANCISCO VALDIVIA DIAZ,SANTA ELENA,LA LIBERTAD,-2.22082096802,-80.9074663577,8754.780000000002,4584,0.0
24H00219,UNIDAD EDUCATIVA JOSE ANTONIO GARCIA CANDO,SANTA ELENA,LA LIBERTAD,-2.24031765238,-80.9081846245,8754.780000000002,4584,5748.0
24H00254,ESCUELA DE EDUCACION BASICA TRECE DE ABRIL,SANTA ELENA,LA LIBERTAD,-2.23040985763,-80.8913853791,14591.300000000003,7640,0.0
24H00257,UNIDAD EDUCATIVA JOSE PEDRO VARELA,SANTA ELENA,LA LIBERTAD,-2.22863749743,-80.9040303564,5836.520000000001,3056,5748.0
24H00260,UNIDAD EDUCATIVA  AYANGUE,SANTA ELENA,SANTA ELENA,-1.97720062931,-80.7524222401,5836.520000000001,3056,0.0
24H00262,ESCUELA DE EDUCACION BASICA JOHN M PENNEY,SANTA ELENA,LA LIBERTAD,-2.2168122369,-80.8949927337,5836.520000000001,3056,5748.0
24H00264,ESCUELA DE EDUCACION BASICA GUSTAVO ENRIQUE GALINDO VELASCO,SANTA ELENA,LA LIBERTAD,-2.24124069951,-80.912015828,8754.780000000002,4584,0.0
24H00267,ESCUELA DE EDUCACION BASICA DOMINGO FAUSTINO SARMIENTO,SANTA ELENA,LA LIBERTAD,-2.22355358626,-80.9136087227,20427.820000000003,10696,0.0
24H00274,ESCUELA DE EDUCACION BASICA ABG CESAR GASPAR MONTENEGRO LAINEZ,SANTA ELENA,SALINAS,-2.22131180146,-80.9570742179,8754.780000000002,4584,0.0
24H00276,ESCUELA DE EDUCACION BASICA PRESIDENTE ALFARO,SANTA ELENA,SALINAS,-2.21253625333,-80.9651055816,8754.780000000002,4584,0.0
24H00283,ESCUELA DE EDUCACION BASICA SANTA ROSA,SANTA ELENA,SALINAS,-2.2115315343,-80.9486027185,8754.780000000002,4584,0.0
24H00299,ESCUELA DE EDUCACION BASICA MANUELA CAÑIZARES,SANTA ELENA,SALINAS,-2.21378432505,-80.9498886987,11673.040000000003,6112,0.0
24H00309,ESCUELA DE EDUCACION BASICA GRAL CESAR ROHON SANDOVAL,SANTA ELENA,SALINAS,-2.32447278574,-80.8871870926,17509.560000000005,9168,0.0
24H00313,UNIDAD EDUCATIVA VIRGINIA REYES GONZALEZ,SANTA ELENA,SALINAS,-2.32476253818,-80.8902630462,14591.300000000003,7640,0.0
24H00336,ESCUELA DE EDUCACION BASICA PRESIDENTE TAMAYO,SANTA ELENA,SALINAS,-2.23229412296,-80.9320719073,5836.520000000001,3056,0.0
24H00337,UNIDAD EDUCATIVA SIMON BOLIVAR,SANTA ELENA,SALINAS,-2.24150405803,-80.9303177362,8754.780000000002,4584,0.0
24H00340,ESCUELA DE EDUCACION BASICA MERCEDES MORENO IRIGOYEN,SANTA ELENA,SALINAS,-2.23459205168,-80.9309566035,11673.040000000003,6112,0.0
24H00348,UNIDAD EDUCATVA ING AGR JUAN JOSE CASTELLO ZAMBRANO,SANTA ELENA,SANTA ELENA,-2.21424795505,-80.2193596163,5836.520000000001,3056,0.0
24H00363,ESCUELA DE EDUCACION BASICA JULIO REYES GONZALEZ,SANTA ELENA,SANTA ELENA,-1.94813392562,-80.7272535645,5836.520000000001,3056,0.0
24H00374,ESCUELA DE EDUCACION BASICA SAN AGUSTIN,SANTA ELENA,SANTA ELENA,-2.40174174462,-80.6937444652,5836.520000000001,3056,0.0
24H00389,ESCUELA DE EDUCACION BASICA LUZ DEL SABER,SANTA ELENA,LA LIBERTAD,-2.25013390515,-80.9094790938,11673.040000000003,6112,0.0
24H00413,UNIDAD EDUCATIVA CEREZAL - BELLAVISTA,SANTA ELENA,SANTA ELENA,-2.00551993426,-80.5499081296,5836.520000000001,3056,0.0
08H00485,UNIDAD EDUCATIVA LA TOLA,ESMERALDAS,ELOY ALFARO,1.21030808045,-79.045276743,5836.520000000001,3056,5748.0
08H00607,ESCUELA DE EDUCACION BASICA  GENERAL VILLAMIL,ESMERALDAS,MUISNE,0.814135515284,-80.0480723157,5836.520000000001,3056,5748.0
08H00650,ESCUELA DE EDUCACION BASICA  FILOCLES MUÑOZ,ESMERALDAS,MUISNE,0.577704906249,-79.8824948639,5836.520000000001,3056,0.0
08H00849,UNIDAD EDUCATIVA   QUITEÑO LIBRE,ESMERALDAS,QUININDE,0.466507256388,-79.5372849785,5836.520000000001,3056,5748.0
08H01430,ESCUELA DE EDUCACIÓN BÁSICA COTOPAXI,ESMERALDAS,RIOVERDE,1.00474382043,-79.3834597193,5836.520000000001,3056,5748.0
21H00618,LUIS ULPIANO DE LA TORRE,SUCUMBIOS,SHUSHUFINDI,-0.16605626361,-76.7329354707,5836.520000000001,3056,5748.0
21H00627,1DE MAYO,SUCUMBIOS,SHUSHUFINDI,-0.147079236862,-76.7794391262,5836.520000000001,3056,5748.0
